[
  {
    "name": "대청001",
    "addr": "대청면 대청로 7",
    "desc": "대청파출소인근",
    "center": "백령119안전센터 대청지역대",
    "area": "101",
    "lat": 37.824677,
    "lng": 124.715105
  },
  {
    "name": "대청002",
    "addr": "대청면 대청로 244번길 162-34",
    "desc": "대청1리경로당인근",
    "center": "백령119안전센터 대청지역대",
    "area": "101",
    "lat": 37.830696,
    "lng": 124.695738
  },
  {
    "name": "대청003",
    "addr": "대청면 대청로 237번길 12",
    "desc": "손명남댁인근",
    "center": "백령119안전센터 대청지역대",
    "area": "101",
    "lat": 37.832477,
    "lng": 124.703448
  },
  {
    "name": "대청004",
    "addr": "대청면 대청북로 85번길 242",
    "desc": "조용심댁인근",
    "center": "백령119안전센터 대청지역대",
    "area": "101",
    "lat": 37.832782,
    "lng": 124.702037
  },
  {
    "name": "대청005",
    "addr": "대청면 대청로 244번길 86",
    "desc": "변창란댁인근",
    "center": "백령119안전센터 대청지역대",
    "area": "101",
    "lat": 37.832782,
    "lng": 124.702037
  },
  {
    "name": "덕적001",
    "addr": "옹진군 덕적면 문갑3길 27",
    "desc": "문갑성당앞",
    "center": "중앙119안전센터 덕적지역대",
    "area": "101",
    "lat": 37.171874,
    "lng": 126.106253
  },
  {
    "name": "덕적002",
    "addr": "옹진군 덕적면 문갑2길 30",
    "desc": "주택인근",
    "center": "중앙119안전센터 덕적지역대",
    "area": "101",
    "lat": 37.172885,
    "lng": 126.106094
  },
  {
    "name": "덕적003",
    "addr": "옹진군 덕적면 소야로 215",
    "desc": "소야교회앞",
    "center": "중앙119안전센터 덕적지역대",
    "area": "101",
    "lat": 37.216344,
    "lng": 126.178254
  },
  {
    "name": "덕적004",
    "addr": "옹진군 덕적면 덕적북로 421",
    "desc": "큰쑥개삼거리",
    "center": "중앙119안전센터 덕적지역대",
    "area": "101",
    "lat": 37.245242,
    "lng": 126.120761
  },
  {
    "name": "덕적005",
    "addr": "옹진군 덕적면 덕적남로 624",
    "desc": "하늘식당민박",
    "center": "중앙119안전센터 덕적지역대",
    "area": "101",
    "lat": 37.224663,
    "lng": 126.116098
  },
  {
    "name": "덕적006",
    "addr": "덕적면 덕적남로 586",
    "desc": "서포리 식당 앞",
    "center": "중앙119안전센터 덕적지역대",
    "area": "101",
    "lat": 126.1152,
    "lng": 37.22243
  },
  {
    "name": "덕적007",
    "addr": "덕적면 덕적남로 606번길 24",
    "desc": "섬사랑 펜션 앞",
    "center": "중앙119안전센터 덕적지역대",
    "area": "101",
    "lat": 126.118,
    "lng": 37.223
  },
  {
    "name": "만석001",
    "addr": "인천광역시 동구 석수로 47-1",
    "desc": "한울타리 닭갈비 앞",
    "center": "만석119안전센터",
    "area": "101",
    "lat": 37.481205,
    "lng": 126.626535
  },
  {
    "name": "만석003",
    "addr": "인천광역시 동구 만석로 36번길 4",
    "desc": "행운수퍼 앞",
    "center": "만석119안전센터",
    "area": "101",
    "lat": 37.481747,
    "lng": 126.623682
  },
  {
    "name": "만석004",
    "addr": "인천광역시 제물량로 341",
    "desc": "만석동우체국앞",
    "center": "만석119안전센터",
    "area": "101",
    "lat": 37.481629,
    "lng": 126.620553
  },
  {
    "name": "만석005",
    "addr": "인천광역시 동구 제물량로 357",
    "desc": "동구 제물량로 357",
    "center": "만석119안전센터",
    "area": "101",
    "lat": 37.482017,
    "lng": 126.622236
  },
  {
    "name": "만석007",
    "addr": "인천광역시 동구 어촌로5번길 4",
    "desc": "동구 어촌로5번길 4",
    "center": "만석119안전센터",
    "area": "101",
    "lat": 37.481655,
    "lng": 126.621415
  },
  {
    "name": "만석008",
    "addr": "인천광역시 동구 어촌로 13",
    "desc": "동구 어촌로 13",
    "center": "만석119안전센터",
    "area": "101",
    "lat": 37.482678,
    "lng": 126.620651
  },
  {
    "name": "만석009",
    "addr": "인천광역시 동구 제물량로 357",
    "desc": "동일방직 동문 앞",
    "center": "만석119안전센터",
    "area": "101",
    "lat": 37.482619,
    "lng": 126.623555
  },
  {
    "name": "만석010",
    "addr": "인천광역시 동구 화도진로 183",
    "desc": "만석비치상가 앞",
    "center": "만석119안전센터",
    "area": "101",
    "lat": 37.485379,
    "lng": 126.622823
  },
  {
    "name": "만석011",
    "addr": "인천광역시 동구 화도진로 146",
    "desc": "동구선거관리위원회 앞",
    "center": "만석119안전센터",
    "area": "101",
    "lat": 37.481406,
    "lng": 126.626608
  },
  {
    "name": "만석012",
    "addr": "인천광역시 동구 화도진로 186번길 7-3",
    "desc": "인천 쪽방 상담소 앞",
    "center": "만석119안전센터",
    "area": "101",
    "lat": 37.485886,
    "lng": 126.623164
  },
  {
    "name": "만석013",
    "addr": "인천광역시 동구 인중로 440-1",
    "desc": "서해빌라 A동 앞",
    "center": "만석119안전센터",
    "area": "101",
    "lat": 37.487033,
    "lng": 126.62249
  },
  {
    "name": "만석014",
    "addr": "인천광역시 동구 화도진로 176",
    "desc": "강경농산물 옆",
    "center": "만석119안전센터",
    "area": "101",
    "lat": 37.485064,
    "lng": 126.623933
  },
  {
    "name": "만석015",
    "addr": "인천광역시 동구 화도진로 139",
    "desc": "이현우메디컬 앞",
    "center": "만석119안전센터",
    "area": "101",
    "lat": 37.482976,
    "lng": 126.620665
  },
  {
    "name": "만석016",
    "addr": "인천광역시 보세로 42번길 41",
    "desc": "삼광조선",
    "center": "만석119안전센터",
    "area": "101",
    "lat": 37.489568,
    "lng": 126.617786
  },
  {
    "name": "만석017",
    "addr": "인천광역시 보세로 74",
    "desc": "삼미정문",
    "center": "만석119안전센터",
    "area": "101",
    "lat": 37.48696545,
    "lng": 126.6142022
  },
  {
    "name": "만석018",
    "addr": "인천광역시 동구 보세로 6",
    "desc": "갈매기 배 낚시앞",
    "center": "만석119안전센터",
    "area": "101",
    "lat": 37.487461,
    "lng": 126.623218
  },
  {
    "name": "만석019",
    "addr": "인천광역시 인중로 440-1",
    "desc": "삼미보세창고",
    "center": "만석119안전센터",
    "area": "101",
    "lat": 37.48685098,
    "lng": 126.6225567
  },
  {
    "name": "만석020",
    "addr": "인천광역시 동구 화도진로 174번길 7-9",
    "desc": "20-2번지 앞",
    "center": "만석119안전센터",
    "area": "101",
    "lat": 37.485717,
    "lng": 126.623713
  },
  {
    "name": "만석021",
    "addr": "인천광역시 동구 인중로 440-1",
    "desc": "만석주유소 옆",
    "center": "만석119안전센터",
    "area": "101",
    "lat": 37.487253,
    "lng": 126.623302
  },
  {
    "name": "만석025",
    "addr": "인천광역시 동구 석수로  43-0",
    "desc": "만석2차아파트 우측",
    "center": "만석119안전센터",
    "area": "101",
    "lat": 37.480845,
    "lng": 126.626741
  },
  {
    "name": "만석026",
    "addr": "인천광역시 운교로 5",
    "desc": "한독약국 옆",
    "center": "만석119안전센터",
    "area": "101",
    "lat": 37.479777,
    "lng": 126.628046
  },
  {
    "name": "만석029",
    "addr": "인천광역시 동구 석수로 60",
    "desc": "삼화제분 정문 앞",
    "center": "만석119안전센터",
    "area": "101",
    "lat": 37.483237,
    "lng": 126.623595
  },
  {
    "name": "만석030",
    "addr": "인천광역시 동구 어촌로 23",
    "desc": "공원도로 옆 인도",
    "center": "만석119안전센터",
    "area": "101",
    "lat": 37.483484,
    "lng": 126.619449
  },
  {
    "name": "만석032",
    "addr": "인천광역시 제물량로 341번길  38-0",
    "desc": "만석1차아파드앞",
    "center": "만석119안전센터",
    "area": "101",
    "lat": 37.482697,
    "lng": 126.619699
  },
  {
    "name": "만석036",
    "addr": "인천광역시 동구 제물량로 386",
    "desc": "동아제분 정문 앞",
    "center": "만석119안전센터",
    "area": "101",
    "lat": 37.483117,
    "lng": 126.624902
  },
  {
    "name": "만석040",
    "addr": "인천광역시 동구 제물량로 396",
    "desc": "만석119안전센터 앞",
    "center": "만석119안전센터",
    "area": "101",
    "lat": 37.485523,
    "lng": 126.62885
  },
  {
    "name": "만석041",
    "addr": "인천광역시 동구 화도진로 194",
    "desc": "철물전기열쇠 앞",
    "center": "만석119안전센터",
    "area": "101",
    "lat": 37.486057,
    "lng": 126.622424
  },
  {
    "name": "만석042",
    "addr": "인천광역시 동구 화도진로 186번길 4-11",
    "desc": "조은빌리지 앞 소공원",
    "center": "만석119안전센터",
    "area": "101",
    "lat": 37.484983,
    "lng": 126.625462
  },
  {
    "name": "만석043",
    "addr": "인천광역시 보세로 42번길 5",
    "desc": "동양목재",
    "center": "만석119안전센터",
    "area": "101",
    "lat": 37.487376,
    "lng": 126.618714
  },
  {
    "name": "만석044",
    "addr": "인천광역시 보세로 58",
    "desc": "삼광조선2공장",
    "center": "만석119안전센터",
    "area": "101",
    "lat": 37.486342,
    "lng": 126.617733
  },
  {
    "name": "만석045",
    "addr": "인천광역시 보세로 38",
    "desc": "상아로지스",
    "center": "만석119안전센터",
    "area": "101",
    "lat": 37.487103,
    "lng": 126.619414
  },
  {
    "name": "만석046",
    "addr": "인천광역시 동구 보세로 8-2",
    "desc": "선진슈퍼 앞",
    "center": "만석119안전센터",
    "area": "101",
    "lat": 37.487773,
    "lng": 126.622189
  },
  {
    "name": "만석048",
    "addr": "인천광역시 동구 만석부두로 41",
    "desc": "기초소재 정문 옆",
    "center": "만석119안전센터",
    "area": "101",
    "lat": 37.48933,
    "lng": 126.622768
  },
  {
    "name": "만석053",
    "addr": "인천광역시 동구 화도진로 186번길 48",
    "desc": "괭이부리마을 아파트 뒤",
    "center": "만석119안전센터",
    "area": "101",
    "lat": 37.484975,
    "lng": 126.624572
  },
  {
    "name": "만석054",
    "addr": "인천광역시 동구 보세로 62",
    "desc": "아세아낚시 옆",
    "center": "만석119안전센터",
    "area": "101",
    "lat": 37.488357,
    "lng": 126.622368
  },
  {
    "name": "만석056",
    "addr": "인천광역시 동구 어촌로 22-2",
    "desc": "동구 어촌로 22-2",
    "center": "만석119안전센터",
    "area": "101",
    "lat": 37.483473,
    "lng": 126.619968
  },
  {
    "name": "만석057",
    "addr": "인천광역시 동구 화도로 47-1",
    "desc": "한마을이발관 앞",
    "center": "만석119안전센터",
    "area": "101",
    "lat": 37.481933,
    "lng": 126.629978
  },
  {
    "name": "만석058",
    "addr": "인천광역시 동구 화도로 26",
    "desc": "대신종합상사 옆",
    "center": "만석119안전센터",
    "area": "101",
    "lat": 37.481126,
    "lng": 126.630116
  },
  {
    "name": "만석059",
    "addr": "인천광역시 동구 화도진로 113",
    "desc": "화수주공상가 앞",
    "center": "만석119안전센터",
    "area": "101",
    "lat": 37.480848,
    "lng": 126.628396
  },
  {
    "name": "만석060",
    "addr": "인천광역시 동구 화도진로 128",
    "desc": "화수동성당 앞",
    "center": "만석119안전센터",
    "area": "101",
    "lat": 37.488269,
    "lng": 126.621664
  },
  {
    "name": "만석061",
    "addr": "인천광역시 동구 화도안로25번길 5-2",
    "desc": "모부전씨댁 앞",
    "center": "만석119안전센터",
    "area": "101",
    "lat": 37.481715,
    "lng": 126.630871
  },
  {
    "name": "만석063",
    "addr": "인천광역시 동구 인중로  516",
    "desc": "버스정류장(36081) 옆",
    "center": "만석119안전센터",
    "area": "101",
    "lat": 37.48552,
    "lng": 126.630766
  },
  {
    "name": "만석064",
    "addr": "인천광역시 동구 화수로  67-1",
    "desc": "하나부동산 앞",
    "center": "만석119안전센터",
    "area": "101",
    "lat": 37.484336,
    "lng": 126.631241
  },
  {
    "name": "만석065",
    "addr": "인천광역시 동구 화수로 47번길 13-0",
    "desc": "동화나라 놀이방",
    "center": "만석119안전센터",
    "area": "101",
    "lat": 37.483033,
    "lng": 126.632124
  },
  {
    "name": "만석066",
    "addr": "인천광역시 동구 화수로73번길  10-4",
    "desc": "화도진중학교 정문 건너편",
    "center": "만석119안전센터",
    "area": "101",
    "lat": 37.484083,
    "lng": 126.631533
  },
  {
    "name": "만석067",
    "addr": "인천광역시 동구 인중로  489",
    "desc": "화수부두입구",
    "center": "만석119안전센터",
    "area": "101",
    "lat": 37.488838,
    "lng": 126.627223
  },
  {
    "name": "만석068",
    "addr": "인천광역시 동구 화수부두로  47",
    "desc": "화수슈퍼 앞",
    "center": "만석119안전센터",
    "area": "101",
    "lat": 37.488567,
    "lng": 126.629032
  },
  {
    "name": "만석071",
    "addr": "인천광역시 동구 운교로 16",
    "desc": "자주수산 앞",
    "center": "만석119안전센터",
    "area": "101",
    "lat": 37.480971,
    "lng": 126.628542
  },
  {
    "name": "만석083",
    "addr": "인천광역시 동구 쌍우물로 35-0",
    "desc": "빙그레대리점 앞",
    "center": "만석119안전센터",
    "area": "101",
    "lat": 37.481927,
    "lng": 126.631767
  },
  {
    "name": "만석086",
    "addr": "인천광역시 동구 인중로  506-1",
    "desc": "제일냉동 앞",
    "center": "만석119안전센터",
    "area": "101",
    "lat": 37.485725,
    "lng": 126.6296
  },
  {
    "name": "만석087",
    "addr": "인천광역시 동구 송화로 34",
    "desc": "옛날장터골식당 앞",
    "center": "만석119안전센터",
    "area": "101",
    "lat": 37.480223,
    "lng": 126.632399
  },
  {
    "name": "만석089",
    "addr": "인천광역시 동구 송화로 43",
    "desc": "서산전기 앞",
    "center": "만석119안전센터",
    "area": "101",
    "lat": 37.480962,
    "lng": 126.633032
  },
  {
    "name": "만석095",
    "addr": "인천광역시 동구 화도진로 88번길 21",
    "desc": "화도교회 주차장 건너편",
    "center": "만석119안전센터",
    "area": "101",
    "lat": 37.480509,
    "lng": 126.630728
  },
  {
    "name": "만석096",
    "addr": "인천광역시 동구 송화로2번길 1",
    "desc": "현대마트 앞",
    "center": "만석119안전센터",
    "area": "101",
    "lat": 37.477436,
    "lng": 126.631075
  },
  {
    "name": "만석097",
    "addr": "인천광역시 동구 화도진로 75-7",
    "desc": "인천교회 건너",
    "center": "만석119안전센터",
    "area": "101",
    "lat": 37.478751,
    "lng": 126.630884
  },
  {
    "name": "만석098",
    "addr": "인천광역시 동구 송화로 7-0",
    "desc": "오리한마리 앞",
    "center": "만석119안전센터",
    "area": "101",
    "lat": 37.477857,
    "lng": 126.631211
  },
  {
    "name": "만석100",
    "addr": "인천광역시 동구 화도진로 68번길 29",
    "desc": "화단 앞",
    "center": "만석119안전센터",
    "area": "101",
    "lat": 37.479472,
    "lng": 126.632381
  },
  {
    "name": "만석101",
    "addr": "인천광역시 동구 송화로19번길 1-8",
    "desc": "배재순씨댁 전주 앞",
    "center": "만석119안전센터",
    "area": "101",
    "lat": 37.478967,
    "lng": 126.631429
  },
  {
    "name": "만석102",
    "addr": "인천광역시 동구 송화로 23번길  20-1",
    "desc": "중앙빌라 소공원",
    "center": "만석119안전센터",
    "area": "101",
    "lat": 37.480004,
    "lng": 126.631194
  },
  {
    "name": "만석104",
    "addr": "인천광역시 동구 화도진로 78-0",
    "desc": "송현흑염소집 앞",
    "center": "만석119안전센터",
    "area": "101",
    "lat": 37.478932,
    "lng": 126.631216
  },
  {
    "name": "만석105",
    "addr": "인천광역시 동구 송화로 32",
    "desc": "수작공방 앞",
    "center": "만석119안전센터",
    "area": "101",
    "lat": 37.47983,
    "lng": 126.632499
  },
  {
    "name": "만석141",
    "addr": "인천광역시 동구 석수로 96",
    "desc": "만석동사무소 정문 우측",
    "center": "만석119안전센터",
    "area": "101",
    "lat": 37.482249,
    "lng": 126.624003
  },
  {
    "name": "만석142",
    "addr": "인천광역시 동구 화수로 51-0",
    "desc": "미륭아파트 106동 앞",
    "center": "만석119안전센터",
    "area": "101",
    "lat": 37.483247,
    "lng": 126.632568
  },
  {
    "name": "만석145",
    "addr": "인천광역시 동구 화도진로 154",
    "desc": "미추홀맨션 건너편",
    "center": "만석119안전센터",
    "area": "101",
    "lat": 37.484264,
    "lng": 126.625645
  },
  {
    "name": "만석147",
    "addr": "인천광역시 동구 화수로  77-1",
    "desc": "버스정류장 우체통앞",
    "center": "만석119안전센터",
    "area": "101",
    "lat": 37.485015,
    "lng": 126.630442
  },
  {
    "name": "만석167",
    "addr": "인천광역시 동구 화도진로68번길 3-3",
    "desc": "대한스튜디오 새마을금고 앞",
    "center": "만석119안전센터",
    "area": "101",
    "lat": 37.480516,
    "lng": 126.629674
  },
  {
    "name": "만석169",
    "addr": "인천광역시 동구 운교로 15",
    "desc": "화수농협 앞",
    "center": "만석119안전센터",
    "area": "101",
    "lat": 37.478208,
    "lng": 126.631671
  },
  {
    "name": "만석171",
    "addr": "인천광역시 동구 운교로 15번길 14",
    "desc": "축산물 백화점 앞",
    "center": "만석119안전센터",
    "area": "101",
    "lat": 37.480333,
    "lng": 126.628611
  },
  {
    "name": "만석173",
    "addr": "인천광역시 동구 화도진로91번길 20-0",
    "desc": "과일미니식품슈퍼 앞",
    "center": "만석119안전센터",
    "area": "101",
    "lat": 37.48058,
    "lng": 126.62769
  },
  {
    "name": "만석174",
    "addr": "인천광역시 동구 화도진로 114",
    "desc": "화도진공원 입구 우측",
    "center": "만석119안전센터",
    "area": "101",
    "lat": 37.478687,
    "lng": 126.629698
  },
  {
    "name": "만석198",
    "addr": "인천광역시 동구 보세로 74",
    "desc": "만석현대자동차",
    "center": "만석119안전센터",
    "area": "101",
    "lat": 37.485896176561,
    "lng": 126.616669080079
  },
  {
    "name": "만석201",
    "addr": "인천광역시 중구 참외전로 100",
    "desc": "미추홀문화회관 옆",
    "center": "만석119안전센터",
    "area": "101",
    "lat": 37.477416,
    "lng": 126.629944
  },
  {
    "name": "만석202",
    "addr": "인천광역시 동구 제물량로 412",
    "desc": "만석초등학교 정문쪽 모퉁이",
    "center": "만석119안전센터",
    "area": "101",
    "lat": 37.48603,
    "lng": 126.616621
  },
  {
    "name": "만석203",
    "addr": "인천광역시 중구 참외전로72번길 9-2",
    "desc": "인일여고 정문",
    "center": "만석119안전센터",
    "area": "101",
    "lat": 37.481731,
    "lng": 126.620484
  },
  {
    "name": "만석205",
    "addr": "인천광역시 중구 참외전로72번길 3",
    "desc": "전동축산 우측",
    "center": "만석119안전센터",
    "area": "101",
    "lat": 37.478193,
    "lng": 126.628147
  },
  {
    "name": "만석206",
    "addr": "인천광역시 중구 참외전로72번길 24",
    "desc": "동인천행정복지센터 정문",
    "center": "만석119안전센터",
    "area": "101",
    "lat": 37.478858,
    "lng": 126.628068
  },
  {
    "name": "만석208",
    "addr": "인천광역시 중구 참외전로 50",
    "desc": "현대빌라 101동 인근",
    "center": "만석119안전센터",
    "area": "101",
    "lat": 37.47939625,
    "lng": 126.6256133
  },
  {
    "name": "만석209",
    "addr": "인천광역시 중구 자유공원로 106-7",
    "desc": "송월초등학교 정문 앞",
    "center": "만석119안전센터",
    "area": "101",
    "lat": 37.479486,
    "lng": 126.625566
  },
  {
    "name": "만석210",
    "addr": "인천광역시 중구 자유공원서로 61",
    "desc": "기상대 정문 앞",
    "center": "만석119안전센터",
    "area": "101",
    "lat": 37.479471,
    "lng": 126.626738
  },
  {
    "name": "만석211",
    "addr": "인천광역시 중구 참외전로56번길 14",
    "desc": "인일하이츠빌라",
    "center": "만석119안전센터",
    "area": "101",
    "lat": 37.478747,
    "lng": 126.623895
  },
  {
    "name": "만석212",
    "addr": "인천광역시 중구 전동로6번길 1",
    "desc": "대명빌라",
    "center": "만석119안전센터",
    "area": "101",
    "lat": 37.479271,
    "lng": 126.626829
  },
  {
    "name": "만석214",
    "addr": "인천광역시 중구 자유공원로42번길 10-19",
    "desc": "선광관세무소",
    "center": "만석119안전센터",
    "area": "101",
    "lat": 37.476267,
    "lng": 126.626719
  },
  {
    "name": "만석215",
    "addr": "인천광역시 중구 자유공원로42번길 9-3",
    "desc": "대명빌라",
    "center": "만석119안전센터",
    "area": "101",
    "lat": 37.476079,
    "lng": 126.625473
  },
  {
    "name": "만석216",
    "addr": "인천광역시 중구 참외전로 59번길 28",
    "desc": "예촌빌라 인근",
    "center": "만석119안전센터",
    "area": "101",
    "lat": 37.48033894,
    "lng": 126.6253747
  },
  {
    "name": "만석217",
    "addr": "인천광역시 중구 참외전로 49-1",
    "desc": "우진빌라 인근",
    "center": "만석119안전센터",
    "area": "101",
    "lat": 37.47972734,
    "lng": 126.625774
  },
  {
    "name": "만석218",
    "addr": "인천광역시 중구 참외전로 61",
    "desc": "송월빌라 인근",
    "center": "만석119안전센터",
    "area": "101",
    "lat": 37.479768,
    "lng": 126.626936
  },
  {
    "name": "만석219",
    "addr": "인천광역시 중구 자유공원남로 51",
    "desc": "wknd Lounge 앞",
    "center": "만석119안전센터",
    "area": "101",
    "lat": 37.475008,
    "lng": 126.624854
  },
  {
    "name": "만석221",
    "addr": "인천광역시 중구 참외전로 59번길 40-30",
    "desc": "드림댄스 인근",
    "center": "만석119안전센터",
    "area": "101",
    "lat": 37.48071468,
    "lng": 126.6249559
  },
  {
    "name": "만석224",
    "addr": "인천광역시 중구 제물량로 317",
    "desc": "남경포브 101동 앞 인도",
    "center": "만석119안전센터",
    "area": "101",
    "lat": 37.479827,
    "lng": 126.619214
  },
  {
    "name": "만석225",
    "addr": "인천광역시 중구 참외전로 38",
    "desc": "송월초등학교 인근",
    "center": "만석119안전센터",
    "area": "101",
    "lat": 37.479529,
    "lng": 126.6243352
  },
  {
    "name": "만석226",
    "addr": "인천광역시 중구 참외전로 59번길 64",
    "desc": "송월교회 인근",
    "center": "만석119안전센터",
    "area": "101",
    "lat": 37.48085133,
    "lng": 126.6235001
  },
  {
    "name": "만석228",
    "addr": "인천광역시 중구 참외전로 13번길  18-0",
    "desc": "인천수협후문앞",
    "center": "만석119안전센터",
    "area": "101",
    "lat": 37.480613,
    "lng": 126.623295
  },
  {
    "name": "만석231",
    "addr": "인천광역시 중구 참외전로 12",
    "desc": "인천종합건재 앞",
    "center": "만석119안전센터",
    "area": "101",
    "lat": 37.480221,
    "lng": 126.620836
  },
  {
    "name": "만석232",
    "addr": "인천광역시 중구 송월로 2",
    "desc": "막내네 포차 인근",
    "center": "만석119안전센터",
    "area": "101",
    "lat": 37.479602392082,
    "lng": 126.623142979891
  },
  {
    "name": "만석233",
    "addr": "인천광역시 중구 송월로 8",
    "desc": "어드벤처피아노",
    "center": "만석119안전센터",
    "area": "101",
    "lat": 37.479639,
    "lng": 126.62311
  },
  {
    "name": "만석236",
    "addr": "인천광역시 중구 송월로7번길 8",
    "desc": "없음",
    "center": "만석119안전센터",
    "area": "101",
    "lat": 37.479215,
    "lng": 126.623053
  },
  {
    "name": "만석238",
    "addr": "인천광역시 중구 참외전로  4-1",
    "desc": "리가치킨 앞",
    "center": "만석119안전센터",
    "area": "101",
    "lat": 37.479314,
    "lng": 126.620305
  },
  {
    "name": "만석239",
    "addr": "인천광역시 중구 자유공원로 122-3",
    "desc": "재활용쓰레기장 옆",
    "center": "만석119안전센터",
    "area": "101",
    "lat": 37.479486,
    "lng": 126.620505
  },
  {
    "name": "만석240",
    "addr": "인천광역시 중구 참외전로  7-0",
    "desc": "문화사 앞",
    "center": "만석119안전센터",
    "area": "101",
    "lat": 37.478878,
    "lng": 126.621691
  },
  {
    "name": "만석244",
    "addr": "인천광역시 중구 차이나타운로  14-1",
    "desc": "부흥정육점",
    "center": "만석119안전센터",
    "area": "101",
    "lat": 37.479591,
    "lng": 126.620251
  },
  {
    "name": "만석245",
    "addr": "인천광역시 중구 자유공원서로37번길  55-0",
    "desc": "송월목욕탕 건너편",
    "center": "만석119안전센터",
    "area": "101",
    "lat": 37.477833,
    "lng": 126.619403
  },
  {
    "name": "만석246",
    "addr": "인천광역시 중구 자유공원로 103",
    "desc": "동화마을슈퍼옆",
    "center": "만석119안전센터",
    "area": "101",
    "lat": 37.478293,
    "lng": 126.619575
  },
  {
    "name": "만석247",
    "addr": "인천광역시 중구 동화마을안길 28",
    "desc": "게러지 옆",
    "center": "만석119안전센터",
    "area": "101",
    "lat": 37.478909,
    "lng": 126.622049
  },
  {
    "name": "만석248",
    "addr": "인천광역시 중구 자유공원서로51번길  44-0",
    "desc": "영진빌라 나동",
    "center": "만석119안전센터",
    "area": "101",
    "lat": 37.478281,
    "lng": 126.621215
  },
  {
    "name": "만석249",
    "addr": "인천광역시 중구 자유공원서로45번길  40-0",
    "desc": "천주섭리의 집",
    "center": "만석119안전센터",
    "area": "101",
    "lat": 37.478666,
    "lng": 126.620651
  },
  {
    "name": "만석250",
    "addr": "인천광역시 중구 자유공원로 45번길 10-9",
    "desc": "송월교회 화단",
    "center": "만석119안전센터",
    "area": "101",
    "lat": 37.478055,
    "lng": 126.620036
  },
  {
    "name": "만석252",
    "addr": "인천광역시 중구 자유공원서로37번길  19-0",
    "desc": "14-6 주택 모퉁이",
    "center": "만석119안전센터",
    "area": "101",
    "lat": 37.479462,
    "lng": 126.623062
  },
  {
    "name": "만석301",
    "addr": "인천광역시 동구 제물량로 436",
    "desc": "금강정밀 앞",
    "center": "만석119안전센터",
    "area": "102",
    "lat": 37.477135,
    "lng": 126.62113
  },
  {
    "name": "만석302",
    "addr": "인천광역시 동구 화수로 84",
    "desc": "유경아쿠아헬스사우나 앞",
    "center": "만석119안전센터",
    "area": "102",
    "lat": 37.485475,
    "lng": 126.639889
  },
  {
    "name": "만석303",
    "addr": "인천광역시 동구 만석부두로  41-0",
    "desc": "덕일금속",
    "center": "만석119안전센터",
    "area": "102",
    "lat": 37.491224,
    "lng": 126.622435
  },
  {
    "name": "만석304",
    "addr": "인천광역시 동구 만석부두로  33-0",
    "desc": "경인비철금속",
    "center": "만석119안전센터",
    "area": "102",
    "lat": 37.490492,
    "lng": 126.622741
  },
  {
    "name": "만석305",
    "addr": "인천광역시 동구 보세로 22-0",
    "desc": "현대기계",
    "center": "만석119안전센터",
    "area": "102",
    "lat": 37.488488,
    "lng": 126.620237
  },
  {
    "name": "만석306",
    "addr": "인천광역시 동구 보세로 105-0",
    "desc": "6617부대",
    "center": "만석119안전센터",
    "area": "102",
    "lat": 37.486997,
    "lng": 126.612367
  },
  {
    "name": "만석307",
    "addr": "인천광역시 동구 만석로39번길  10-1",
    "desc": "동구 만석로39번길  10-1",
    "center": "만석119안전센터",
    "area": "102",
    "lat": 37.486997,
    "lng": 126.612367
  },
  {
    "name": "만석308",
    "addr": "인천광역시 동구 인중로  498-5",
    "desc": "영업용 냉장고 설치업체",
    "center": "만석119안전센터",
    "area": "102",
    "lat": 37.483806,
    "lng": 126.618748
  },
  {
    "name": "만석309",
    "addr": "인천광역시 동구 제물량로 357",
    "desc": "동일방직 정문 좌측편 모퉁이",
    "center": "만석119안전센터",
    "area": "102",
    "lat": 37.485783,
    "lng": 126.628622
  },
  {
    "name": "만석310",
    "addr": "인천광역시 중구 참외전로 49-0",
    "desc": "지엘전기 인근",
    "center": "만석119안전센터",
    "area": "102",
    "lat": 37.479654,
    "lng": 126.625687
  },
  {
    "name": "만석311",
    "addr": "인천광역시 중구 참외전로 3",
    "desc": "남흥상회 옆",
    "center": "만석119안전센터",
    "area": "102",
    "lat": 37.479654,
    "lng": 126.625687
  },
  {
    "name": "만석312",
    "addr": "인천광역시 중구 참외전로 1",
    "desc": "만석고가 입구 옆 주차장",
    "center": "만석119안전센터",
    "area": "102",
    "lat": 37.47959,
    "lng": 126.620248
  },
  {
    "name": "만석313",
    "addr": "인천광역시 동구 제물량로 341번길 38",
    "desc": "만석아파트 가동 옆",
    "center": "만석119안전센터",
    "area": "102",
    "lat": 37.479834,
    "lng": 126.620347
  },
  {
    "name": "만석314",
    "addr": "인천광역시 중구 참외전로 13번길 22",
    "desc": "동양자원 옆",
    "center": "만석119안전센터",
    "area": "102",
    "lat": 37.482946,
    "lng": 126.619231
  },
  {
    "name": "만석315",
    "addr": "인천광역시 동구 화수안로 41",
    "desc": "슈퍼앞",
    "center": "만석119안전센터",
    "area": "102",
    "lat": 37.484036,
    "lng": 126.630077
  },
  {
    "name": "만석316",
    "addr": "인천광역시 동구 쌍우물로 92-0",
    "desc": "화도마트 맞은편",
    "center": "만석119안전센터",
    "area": "102",
    "lat": 37.48346,
    "lng": 126.62949
  },
  {
    "name": "만석317",
    "addr": "인천광역시 동구 보세로 26번길 24-41",
    "desc": "석호철강",
    "center": "만석119안전센터",
    "area": "102",
    "lat": 37.4900382771836,
    "lng": 126.619848905678
  },
  {
    "name": "만석318",
    "addr": "인천광역시 동구  보세로42번길 41",
    "desc": "삼광조선 앞",
    "center": "만석119안전센터",
    "area": "102",
    "lat": 37.489385,
    "lng": 126.618044
  },
  {
    "name": "만석319",
    "addr": "인천광역시 동구 만석부두로 7번길 7",
    "desc": "동광창호 정문",
    "center": "만석119안전센터",
    "area": "102",
    "lat": 37.48886,
    "lng": 126.62215
  },
  {
    "name": "만석320",
    "addr": "인천광역시 동구 화수로 46",
    "desc": "미륭아파트 상가 앞",
    "center": "만석119안전센터",
    "area": "102",
    "lat": 37.4831,
    "lng": 126.63313
  },
  {
    "name": "만석321",
    "addr": "인천광역시 동구 보세로 20",
    "desc": "만석동 제1경로당 앞",
    "center": "만석119안전센터",
    "area": "102",
    "lat": 37.490468,
    "lng": 126.845213
  },
  {
    "name": "만석501",
    "addr": "인천광역시 동구 만석로 4",
    "desc": "만석북성동우회",
    "center": "만석119안전센터",
    "area": "102",
    "lat": 37.481567,
    "lng": 126.622085
  },
  {
    "name": "만석502",
    "addr": "인천광역시 동구 만석로 18",
    "desc": "금강쉐르빌 2동",
    "center": "만석119안전센터",
    "area": "102",
    "lat": 37.481598,
    "lng": 126.622873
  },
  {
    "name": "만석503",
    "addr": "인천광역시 동구 만석로 36번길 1",
    "desc": "만석카센터",
    "center": "만석119안전센터",
    "area": "102",
    "lat": 37.481651,
    "lng": 126.623796
  },
  {
    "name": "만석504",
    "addr": "인천광역시 동구 만석로 45",
    "desc": "만석빌리지 2동 앞",
    "center": "만석119안전센터",
    "area": "102",
    "lat": 37.479462,
    "lng": 126.623062
  },
  {
    "name": "만석505",
    "addr": "인천광역시 동구 제물량로 346-1",
    "desc": "원조안면도쭈꾸미 뒷골목",
    "center": "만석119안전센터",
    "area": "102",
    "lat": 37.478806,
    "lng": 126.622114
  },
  {
    "name": "만석506",
    "addr": "인천광역시 동구 제물량로 341번길 38",
    "desc": "만석1차아파트",
    "center": "만석119안전센터",
    "area": "102",
    "lat": 37.482467,
    "lng": 126.619548
  },
  {
    "name": "만석507",
    "addr": "인천광역시 동구 제물량로 335번길 66",
    "desc": "소금교회 앞",
    "center": "만석119안전센터",
    "area": "102",
    "lat": 37.482771,
    "lng": 126.618507
  },
  {
    "name": "만석508",
    "addr": "인천광역시 동구 제물량로 341번길 17-5",
    "desc": "송월 변전소 앞",
    "center": "만석119안전센터",
    "area": "102",
    "lat": 37.481781,
    "lng": 126.619913
  },
  {
    "name": "만석509",
    "addr": "인천광역시 동구 석수로 129-0",
    "desc": "광원목재 입구 옆",
    "center": "만석119안전센터",
    "area": "102",
    "lat": 37.485959,
    "lng": 126.624511
  },
  {
    "name": "만석510",
    "addr": "인천광역시 동구 화도진로 183-0",
    "desc": "만석주공 정문 앞",
    "center": "만석119안전센터",
    "area": "102",
    "lat": 37.482427,
    "lng": 126.619906
  },
  {
    "name": "만석511",
    "addr": "인천광역시 동구 제물량로 387-0",
    "desc": "인천주유소 옆",
    "center": "만석119안전센터",
    "area": "102",
    "lat": 37.475782,
    "lng": 126.627641
  },
  {
    "name": "만석512",
    "addr": "인천광역시 동구 화도진로 154번길 3-0",
    "desc": "미추홀피아노 앞",
    "center": "만석119안전센터",
    "area": "102",
    "lat": 37.485163,
    "lng": 126.629682
  },
  {
    "name": "만석513",
    "addr": "인천광역시 동구 화도진로 156",
    "desc": "만석동 9번지 화장실 앞",
    "center": "만석119안전센터",
    "area": "102",
    "lat": 37.484365,
    "lng": 126.625852
  },
  {
    "name": "만석514",
    "addr": "인천광역시 동구 만석부두로 1번길 10",
    "desc": "삼오식당 옆",
    "center": "만석119안전센터",
    "area": "102",
    "lat": 37.488056,
    "lng": 126.622129
  },
  {
    "name": "만석515",
    "addr": "인천광역시 동구 쌍우물로 78",
    "desc": "대경케미칼",
    "center": "만석119안전센터",
    "area": "102",
    "lat": 37.483117,
    "lng": 126.630002
  },
  {
    "name": "만석516",
    "addr": "인천광역시 동구 쌍우물로 72번길",
    "desc": "일꾼 감리교회 앞",
    "center": "만석119안전센터",
    "area": "102",
    "lat": 37.478235,
    "lng": 126.632298
  },
  {
    "name": "만석517",
    "addr": "인천광역시 동구 화도안로 17",
    "desc": "무명슈퍼 앞",
    "center": "만석119안전센터",
    "area": "102",
    "lat": 37.482364,
    "lng": 126.629994
  },
  {
    "name": "만석518",
    "addr": "인천광역시 동구 화도안로 5",
    "desc": "민들레국수집 앞",
    "center": "만석119안전센터",
    "area": "102",
    "lat": 37.481389,
    "lng": 126.628304
  },
  {
    "name": "만석519",
    "addr": "인천광역시 동구 화도진로106번길 34",
    "desc": "한수복씨댁 앞",
    "center": "만석119안전센터",
    "area": "102",
    "lat": 37.482718,
    "lng": 126.62255
  },
  {
    "name": "만석520",
    "addr": "인천광역시 동구 화도진로 106번길 12",
    "desc": "반도하이츠빌라 앞",
    "center": "만석119안전센터",
    "area": "102",
    "lat": 37.481079,
    "lng": 126.629166
  },
  {
    "name": "만석521",
    "addr": "인천광역시 동구 화도진로 106번길 12",
    "desc": "화도진로 106번길12주택앞",
    "center": "만석119안전센터",
    "area": "102",
    "lat": 37.481079,
    "lng": 126.629166
  },
  {
    "name": "만석522",
    "addr": "인천광역시 동구 화수로 69번길 3",
    "desc": "이바돔감자탕 앞",
    "center": "만석119안전센터",
    "area": "102",
    "lat": 37.484211,
    "lng": 126.631021
  },
  {
    "name": "만석523",
    "addr": "인천광역시 동구 화수로 69번길 3",
    "desc": "주은컴퓨터드라이 세탁",
    "center": "만석119안전센터",
    "area": "102",
    "lat": 37.484211,
    "lng": 126.631021
  },
  {
    "name": "만석524",
    "addr": "인천광역시 동구 제물량로 430",
    "desc": "만석초교후문",
    "center": "만석119안전센터",
    "area": "102",
    "lat": 37.484983,
    "lng": 126.629066
  },
  {
    "name": "만석525",
    "addr": "인천광역시 동구 화도안로 61",
    "desc": "참좋은교회 옆",
    "center": "만석119안전센터",
    "area": "102",
    "lat": 37.482571,
    "lng": 126.632667
  },
  {
    "name": "만석526",
    "addr": "인천광역시 동구 화수로 69번길 17",
    "desc": "대한호",
    "center": "만석119안전센터",
    "area": "102",
    "lat": 37.488708,
    "lng": 126.627134
  },
  {
    "name": "만석527",
    "addr": "인천광역시 동구 화수부두로 11",
    "desc": "두경상회",
    "center": "만석119안전센터",
    "area": "102",
    "lat": 37.488048,
    "lng": 126.630269
  },
  {
    "name": "만석528",
    "addr": "인천광역시 동구 화수부두로 31",
    "desc": "화도진중학교",
    "center": "만석119안전센터",
    "area": "102",
    "lat": 37.484804,
    "lng": 126.632009
  },
  {
    "name": "만석529",
    "addr": "인천광역시 동구 화수로 64",
    "desc": "하이센스빌라",
    "center": "만석119안전센터",
    "area": "102",
    "lat": 37.479333,
    "lng": 126.630935
  },
  {
    "name": "만석530",
    "addr": "인천광역시 동구 송화로 19번길 19-1",
    "desc": "우정원룸 앞",
    "center": "만석119안전센터",
    "area": "102",
    "lat": 37.483461,
    "lng": 126.629491
  },
  {
    "name": "만석531",
    "addr": "인천광역시 동구 송화로35전길 20-2",
    "desc": "진흥아트빌 앞",
    "center": "만석119안전센터",
    "area": "102",
    "lat": 37.485959,
    "lng": 126.624511
  },
  {
    "name": "만석532",
    "addr": "인천광역시 동구 화도진로100",
    "desc": "효창보일러 앞",
    "center": "만석119안전센터",
    "area": "102",
    "lat": 37.482467,
    "lng": 126.619548
  },
  {
    "name": "만석533",
    "addr": "인천광역시 동구 송화로 6-3",
    "desc": "삼각이발관 앞",
    "center": "만석119안전센터",
    "area": "102",
    "lat": 37.477713,
    "lng": 126.631233
  },
  {
    "name": "만석534",
    "addr": "인천광역시 동구 송화로 23번길 5-1",
    "desc": "만석주공 정문 앞",
    "center": "만석119안전센터",
    "area": "102",
    "lat": 37.482427,
    "lng": 126.619906
  },
  {
    "name": "만석535",
    "addr": "인천광역시 동구 화도진로100",
    "desc": "보신탕 앞",
    "center": "만석119안전센터",
    "area": "102",
    "lat": 37.475782,
    "lng": 126.627641
  },
  {
    "name": "만석536",
    "addr": "인천광역시 동구 송화로35번길 31",
    "desc": "화도맨션 앞",
    "center": "만석119안전센터",
    "area": "102",
    "lat": 37.479333,
    "lng": 126.630935
  },
  {
    "name": "만석537",
    "addr": "인천광역시 동구 송화로 1-1",
    "desc": "트라이 앞",
    "center": "만석119안전센터",
    "area": "102",
    "lat": 37.480634,
    "lng": 126.630992
  },
  {
    "name": "만석538",
    "addr": "인천광역시 동구 화도진로 68번길 8",
    "desc": "화평동노인회관 앞",
    "center": "만석119안전센터",
    "area": "102",
    "lat": 37.478235,
    "lng": 126.632298
  },
  {
    "name": "만석539",
    "addr": "인천광역시 동구 화도진로 156번길 19",
    "desc": "만석교회 옆",
    "center": "만석119안전센터",
    "area": "102",
    "lat": 37.484329,
    "lng": 126.625861
  },
  {
    "name": "만석540",
    "addr": "인천광역시 중구 송월로 2",
    "desc": "장엄사 앞",
    "center": "만석119안전센터",
    "area": "102",
    "lat": 37.479267,
    "lng": 126.621911
  },
  {
    "name": "만석541",
    "addr": "인천광역시 중구 송월로6번길 22",
    "desc": "이동순씨 댁 앞",
    "center": "만석119안전센터",
    "area": "102",
    "lat": 37.478806,
    "lng": 126.622114
  },
  {
    "name": "만석542",
    "addr": "인천광역시 중구 전동로 18-6",
    "desc": "정성맨션 앞",
    "center": "만석119안전센터",
    "area": "102",
    "lat": 37.478257,
    "lng": 126.628526
  },
  {
    "name": "만석543",
    "addr": "인천광역시 중구 동화마을길 65",
    "desc": "송월교회 주차장 앞",
    "center": "만석119안전센터",
    "area": "102",
    "lat": 37.475782,
    "lng": 126.627641
  },
  {
    "name": "만석544",
    "addr": "인천광역시 중구 동화마을안길 9-15",
    "desc": "장미빌라 옆",
    "center": "만석119안전센터",
    "area": "102",
    "lat": 37.47635,
    "lng": 126.62626
  },
  {
    "name": "만석545",
    "addr": "인천광역시 중구 송월로 2",
    "desc": "장엄사 앞",
    "center": "만석119안전센터",
    "area": "102",
    "lat": 37.479267,
    "lng": 126.621911
  },
  {
    "name": "만석546",
    "addr": "인천광역시 중구 송월로 8번길 17",
    "desc": "송월하이츠빌라 인근",
    "center": "만석119안전센터",
    "area": "102",
    "lat": 37.478806,
    "lng": 126.622114
  },
  {
    "name": "만석547",
    "addr": "인천광역시 중구 송월로8번길  17-0",
    "desc": "윤경섭씨 댁 앞",
    "center": "만석119안전센터",
    "area": "102",
    "lat": 37.478257,
    "lng": 126.628526
  },
  {
    "name": "만석548",
    "addr": "인천광역시 중구 자유공원로 135-2",
    "desc": "화도농산 인근",
    "center": "만석119안전센터",
    "area": "102",
    "lat": 37.4792558198269,
    "lng": 126.620276465774
  },
  {
    "name": "만석549",
    "addr": "인천광역시 중구 참외전로 13번길 15-18",
    "desc": "제일가정식백반 인근",
    "center": "만석119안전센터",
    "area": "102",
    "lat": 37.480329,
    "lng": 126.620598
  },
  {
    "name": "만석601",
    "addr": "인천광역시 동구 화도진로 70",
    "desc": "새마을금고 앞 대로변",
    "center": "만석119안전센터",
    "area": "102",
    "lat": 37.484036,
    "lng": 126.630077
  },
  {
    "name": "만석602",
    "addr": "인천광역시 동구 화도진로 102번길 11",
    "desc": "화도순대 앞",
    "center": "만석119안전센터",
    "area": "102",
    "lat": 37.480516,
    "lng": 126.629674
  },
  {
    "name": "만석603",
    "addr": "인천광역시 동구 인중로 506-1",
    "desc": "화수다방",
    "center": "만석119안전센터",
    "area": "102",
    "lat": 37.485691,
    "lng": 126.629589
  },
  {
    "name": "만석604",
    "addr": "인천광역시 동구 인중로 506-1",
    "desc": "화수농협 앞",
    "center": "만석119안전센터",
    "area": "102",
    "lat": 37.485691,
    "lng": 126.629589
  },
  {
    "name": "만석605",
    "addr": "인천광역시 중구 참외전로 13번길 7-36",
    "desc": "문화사 인근",
    "center": "만석119안전센터",
    "area": "102",
    "lat": 37.4795949597292,
    "lng": 126.62033320732
  },
  {
    "name": "만석606",
    "addr": "인천광역시 중구 제물량로 341번길 43",
    "desc": "만석어린이 공원 앞",
    "center": "만석119안전센터",
    "area": "102",
    "lat": 37.480902,
    "lng": 126.623284
  },
  {
    "name": "만석608",
    "addr": "인천광역시 중구 차이나타운로  11-2",
    "desc": "메디칼",
    "center": "만석119안전센터",
    "area": "102",
    "lat": 37.479354,
    "lng": 126.623159
  },
  {
    "name": "만석701",
    "addr": "인천광역시 동구 인중로 제물량로 424",
    "desc": "벌교꼬막정식",
    "center": "만석119안전센터",
    "area": "102",
    "lat": 37.484998,
    "lng": 126.628905
  },
  {
    "name": "만석702",
    "addr": "인천광열시 중구 송월로 1-2",
    "desc": "양지공인중개사 앞",
    "center": "만석119안전센터",
    "area": "102",
    "lat": 37.479737,
    "lng": 126.622272
  },
  {
    "name": "만석703",
    "addr": "인천광열시 중구 참외전로 59번길  107-0",
    "desc": "수협 앞",
    "center": "만석119안전센터",
    "area": "102",
    "lat": 37.480787,
    "lng": 126.623268
  },
  {
    "name": "백령001",
    "addr": "백령면 두무진로 550번길 13",
    "desc": "두무진공소 골목",
    "center": "백령119안전센터",
    "area": "102",
    "lat": 37.974475,
    "lng": 124.622655
  },
  {
    "name": "백령010",
    "addr": "백령면 백령로 260",
    "desc": "백령도서관앞",
    "center": "백령119안전센터",
    "area": "102",
    "lat": 37.97031,
    "lng": 124.7201
  },
  {
    "name": "백령026",
    "addr": "백령면 백령로 817",
    "desc": "CU편의점 우측",
    "center": "백령119안전센터",
    "area": "102",
    "lat": 37.96086,
    "lng": 124.665071
  },
  {
    "name": "백령037",
    "addr": "백령면 백령로 942",
    "desc": "소가을리삼거리우측",
    "center": "백령119안전센터",
    "area": "102",
    "lat": 37.94809,
    "lng": 124.625454
  },
  {
    "name": "송림001",
    "addr": "인천광역시 동구 배송로1",
    "desc": "푸르지오 정문",
    "center": "송림119안전센터",
    "area": "102",
    "lat": 37.474054,
    "lng": 126.636184
  },
  {
    "name": "송림002",
    "addr": "인천광역시 동구 화도진로14",
    "desc": "푸르지오 주차장 출구",
    "center": "송림119안전센터",
    "area": "102",
    "lat": 37.474522,
    "lng": 126.635674
  },
  {
    "name": "송림003",
    "addr": "인천광역시 동구 화도진로 11-10",
    "desc": "청자여인숙 앞",
    "center": "송림119안전센터",
    "area": "102",
    "lat": 37.47427,
    "lng": 126.635373
  },
  {
    "name": "송림004",
    "addr": "인천광역시 동구 샛골로 189",
    "desc": "서흥초등학교 옆",
    "center": "송림119안전센터",
    "area": "102",
    "lat": 37.479521,
    "lng": 126.645278
  },
  {
    "name": "송림005",
    "addr": "샛골로159",
    "desc": "서울정형외과 앞",
    "center": "송림119안전센터",
    "area": "102",
    "lat": 37.476637,
    "lng": 126.644565
  },
  {
    "name": "송림006",
    "addr": "동구 새천년로 72",
    "desc": "동산휴면시아 103동",
    "center": "송림119안전센터",
    "area": "102",
    "lat": 126.648458,
    "lng": 37.47477
  },
  {
    "name": "송림007",
    "addr": "인천광역시 새천년로",
    "desc": "동산 휴면시아 102동 앞",
    "center": "송림119안전센터",
    "area": "102",
    "lat": 37.475774,
    "lng": 126.648213
  },
  {
    "name": "송림008",
    "addr": "동구 금곡로 28",
    "desc": "동구청 정면 우측 10미터",
    "center": "송림119안전센터",
    "area": "102",
    "lat": 37.473222,
    "lng": 126.638769
  },
  {
    "name": "송림009",
    "addr": "인천광역시 동구 인중로 721",
    "desc": "인터피트PC방 옆",
    "center": "송림119안전센터",
    "area": "102",
    "lat": 37.478673,
    "lng": 126.651988
  },
  {
    "name": "송림010",
    "addr": "동구새천년로 38번길 11",
    "desc": "재능대학교정문 좌측",
    "center": "송림119안전센터",
    "area": "102",
    "lat": 126.65087,
    "lng": 37.473835
  },
  {
    "name": "송림011",
    "addr": "동구 재능로 86",
    "desc": "송림주공아파트101동",
    "center": "송림119안전센터",
    "area": "102",
    "lat": 126.649648,
    "lng": 37.473547
  },
  {
    "name": "송림012",
    "addr": "동구새천년로 38번길 11",
    "desc": "동산휴먼시아201동",
    "center": "송림119안전센터",
    "area": "102",
    "lat": 126.650315,
    "lng": 37.471784
  },
  {
    "name": "송림013",
    "addr": "인천광역시 새천년로 38",
    "desc": "동산휴먼시아 2단지 204동 앞",
    "center": "송림119안전센터",
    "area": "102",
    "lat": 37.472439,
    "lng": 126.65004
  },
  {
    "name": "송림014",
    "addr": "동구새천년로 38번길 11",
    "desc": "송림주공경로당 우측공원",
    "center": "송림119안전센터",
    "area": "102",
    "lat": 126.649682,
    "lng": 37.472382
  },
  {
    "name": "송림015",
    "addr": "동구 새천년로 97",
    "desc": "풍천민물장어",
    "center": "송림119안전센터",
    "area": "102",
    "lat": 126.648643,
    "lng": 37.476601
  },
  {
    "name": "송림016",
    "addr": "동구 송림로 122",
    "desc": "힘찬장어",
    "center": "송림119안전센터",
    "area": "102",
    "lat": 126.647951,
    "lng": 37.476805
  },
  {
    "name": "송림017",
    "addr": "동구 송림로 110",
    "desc": "베스킨라빈스",
    "center": "송림119안전센터",
    "area": "102",
    "lat": 126.646948,
    "lng": 37.476481
  },
  {
    "name": "송림018",
    "addr": "동구 송림로110번길 5-8",
    "desc": "동구문화체육센터 뒤",
    "center": "송림119안전센터",
    "area": "102",
    "lat": 126.647329,
    "lng": 37.47569
  },
  {
    "name": "송림019",
    "addr": "동구 새천년로 83",
    "desc": "동구문화체육센터",
    "center": "송림119안전센터",
    "area": "102",
    "lat": 126.647839,
    "lng": 37.475752
  },
  {
    "name": "송림020",
    "addr": "동구새천년로 38번길 11",
    "desc": "동산휴먼시아202동",
    "center": "송림119안전센터",
    "area": "102",
    "lat": 126.646922,
    "lng": 37.478513
  },
  {
    "name": "송림021",
    "addr": "인천광역시 동산로 35-8",
    "desc": "명진공예사 앞",
    "center": "송림119안전센터",
    "area": "102",
    "lat": 37.471282,
    "lng": 126.648382
  },
  {
    "name": "송림022",
    "addr": "동구 우각로13",
    "desc": "기동3중대 정문",
    "center": "송림119안전센터",
    "area": "102",
    "lat": 37.471287,
    "lng": 126.638507
  },
  {
    "name": "송림023",
    "addr": "서해대로 550번길 1",
    "desc": "아름미용실",
    "center": "송림119안전센터",
    "area": "102",
    "lat": 37.474656,
    "lng": 126.639444
  },
  {
    "name": "송림024",
    "addr": "송림로 14-1",
    "desc": "대림혼다",
    "center": "송림119안전센터",
    "area": "102",
    "lat": 37.474386,
    "lng": 126.639661
  },
  {
    "name": "송림025",
    "addr": "송림로 43번길 35",
    "desc": "송림종합사회복지관",
    "center": "송림119안전센터",
    "area": "102",
    "lat": 37.476027,
    "lng": 126.639721
  },
  {
    "name": "송림026",
    "addr": "솔빛로 70번길 33",
    "desc": "박차순씨 댁",
    "center": "송림119안전센터",
    "area": "102",
    "lat": 37.475285,
    "lng": 126.640198
  },
  {
    "name": "송림027",
    "addr": "동구 서해대로 513번길 4(금창동 16-18)",
    "desc": "바흐카운티",
    "center": "송림119안전센터",
    "area": "102",
    "lat": 37.471968,
    "lng": 126.637691
  },
  {
    "name": "송림028",
    "addr": "인천광역시 동구 송림로 25",
    "desc": "천일양복점",
    "center": "송림119안전센터",
    "area": "102",
    "lat": 37.473846,
    "lng": 126.638478
  },
  {
    "name": "송림030",
    "addr": "인천광역시동산로 21",
    "desc": "경성인쇄",
    "center": "송림119안전센터",
    "area": "102",
    "lat": 37.469884,
    "lng": 126.649471
  },
  {
    "name": "송림031",
    "addr": "동구 금창로12",
    "desc": "인천세무소 후문",
    "center": "송림119안전센터",
    "area": "102",
    "lat": 37.47098,
    "lng": 126.64236
  },
  {
    "name": "송림032",
    "addr": "동구 금곡로 7",
    "desc": "연세우유",
    "center": "송림119안전센터",
    "area": "102",
    "lat": 37.472663,
    "lng": 126.636473
  },
  {
    "name": "송림033",
    "addr": "동구 금곡로 36번길 26(금창동 39-62)",
    "desc": "동구청 주차장출입구",
    "center": "송림119안전센터",
    "area": "102",
    "lat": 37.472436,
    "lng": 126.640414
  },
  {
    "name": "송림034",
    "addr": "동구 금창로18",
    "desc": "서정화씨댁",
    "center": "송림119안전센터",
    "area": "102",
    "lat": 37.471356,
    "lng": 126.642319
  },
  {
    "name": "송림035",
    "addr": "동구 샛골로108-1",
    "desc": "네추럴허브",
    "center": "송림119안전센터",
    "area": "102",
    "lat": 37.472101,
    "lng": 126.643813
  },
  {
    "name": "송림036",
    "addr": "동구 샛골로102",
    "desc": "홈런 공인중계사",
    "center": "송림119안전센터",
    "area": "102",
    "lat": 37.471521,
    "lng": 126.643396
  },
  {
    "name": "송림037",
    "addr": "동구 샛골로 75",
    "desc": "세무회계사무소",
    "center": "송림119안전센터",
    "area": "102",
    "lat": 37.469574,
    "lng": 126.641814
  },
  {
    "name": "송림038",
    "addr": "인천 동구 금창로11번길 14",
    "desc": "창영교회 비전센터",
    "center": "송림119안전센터",
    "area": "102",
    "lat": 37.471008,
    "lng": 126.641393
  },
  {
    "name": "송림039",
    "addr": "인천 동구 금곡동 70-17",
    "desc": "뉴한솔공인중개사무소",
    "center": "송림119안전센터",
    "area": "102",
    "lat": 37.471449,
    "lng": 126.642813
  },
  {
    "name": "송림040",
    "addr": "동구새천년로 38번길 11",
    "desc": "동산휴먼시아203동",
    "center": "송림119안전센터",
    "area": "102",
    "lat": 126.648789,
    "lng": 37.473908
  },
  {
    "name": "송림041",
    "addr": "인천광역시 동구 송미로 50",
    "desc": "알뜰주유소앞",
    "center": "송림119안전센터",
    "area": "102",
    "lat": 37.482754,
    "lng": 126.651003
  },
  {
    "name": "송림042",
    "addr": "인천광역시 동구 송미로 22",
    "desc": "삼화빌라 옆",
    "center": "송림119안전센터",
    "area": "102",
    "lat": 37.481698,
    "lng": 126.64864
  },
  {
    "name": "송림043",
    "addr": "인천광역시 동구 송미로 26",
    "desc": "미래빌라 옆",
    "center": "송림119안전센터",
    "area": "102",
    "lat": 37.482203,
    "lng": 126.649102
  },
  {
    "name": "송림044",
    "addr": "인천광역시 동구 샛골로 129-1",
    "desc": "비비테라피",
    "center": "송림119안전센터",
    "area": "102",
    "lat": 37.474039,
    "lng": 126.644213
  },
  {
    "name": "송림045",
    "addr": "인천광역시 동구 샛골로 210번길 27",
    "desc": "신성카경정비 옆",
    "center": "송림119안전센터",
    "area": "102",
    "lat": 37.480482,
    "lng": 126.647487
  },
  {
    "name": "송림046",
    "addr": "인중로 688",
    "desc": "건물앞 인도",
    "center": "송림119안전센터",
    "area": "102",
    "lat": 37.479611,
    "lng": 126.648003
  },
  {
    "name": "송림047",
    "addr": "인천광역시 동구 인중로 680",
    "desc": "현대부동산 앞",
    "center": "송림119안전센터",
    "area": "102",
    "lat": 37.480009,
    "lng": 126.647375
  },
  {
    "name": "송림048",
    "addr": "인천광역시 동구 인중로 668",
    "desc": "송림동 뒷고기 앞",
    "center": "송림119안전센터",
    "area": "102",
    "lat": 37.480548,
    "lng": 126.646069
  },
  {
    "name": "송림049",
    "addr": "인천광역시 동구 샛골로 194번길 17",
    "desc": "유풍반점 앞",
    "center": "송림119안전센터",
    "area": "102",
    "lat": 37.479274,
    "lng": 126.646461
  },
  {
    "name": "송림050",
    "addr": "인천광역시 송림로 109번길 42-1",
    "desc": "송림DC 생활용품편의점 옆",
    "center": "송림119안전센터",
    "area": "102",
    "lat": 37.478372,
    "lng": 126.646436
  },
  {
    "name": "송림051",
    "addr": "인천광역시 동산로 80-1",
    "desc": "인합상사",
    "center": "송림119안전센터",
    "area": "102",
    "lat": 37.4741,
    "lng": 126.6469
  },
  {
    "name": "송림052",
    "addr": "인천 동구 동산로 62-1",
    "desc": "현대기와싱글싸이딩",
    "center": "송림119안전센터",
    "area": "102",
    "lat": 37.4741,
    "lng": 126.6469
  },
  {
    "name": "송림053",
    "addr": "송림로 125",
    "desc": "블랙박스  앞",
    "center": "송림119안전센터",
    "area": "102",
    "lat": 37.477041,
    "lng": 126.648335
  },
  {
    "name": "송림054",
    "addr": "송림로 113",
    "desc": "횟집 앞",
    "center": "송림119안전센터",
    "area": "102",
    "lat": 37.476784,
    "lng": 126.647459
  },
  {
    "name": "송림055",
    "addr": "샛골로162번길 31",
    "desc": "구 현대축산 옆",
    "center": "송림119안전센터",
    "area": "102",
    "lat": 37.475091,
    "lng": 126.645537
  },
  {
    "name": "송림056",
    "addr": "인천광역시 동구 송림로 138-1",
    "desc": "대박부동산앞",
    "center": "송림119안전센터",
    "area": "102",
    "lat": 37.4741,
    "lng": 126.6469
  },
  {
    "name": "송림057",
    "addr": "샛골로162",
    "desc": "현대청과 앞",
    "center": "송림119안전센터",
    "area": "102",
    "lat": 37.474526,
    "lng": 126.636333
  },
  {
    "name": "송림058",
    "addr": "송림로99번길 9",
    "desc": "김포정육점 앞",
    "center": "송림119안전센터",
    "area": "102",
    "lat": 37.474853,
    "lng": 126.635852
  },
  {
    "name": "송림059",
    "addr": "송미로 6",
    "desc": "풍림아이원 102동 도로",
    "center": "송림119안전센터",
    "area": "102",
    "lat": 37.4741,
    "lng": 126.6469
  },
  {
    "name": "송림060",
    "addr": "샛골로 174",
    "desc": "원예농협 옆",
    "center": "송림119안전센터",
    "area": "102",
    "lat": 37.475648,
    "lng": 126.637545
  },
  {
    "name": "송림061",
    "addr": "송림로107-2",
    "desc": "인성전기 앞",
    "center": "송림119안전센터",
    "area": "102",
    "lat": 37.476631,
    "lng": 126.64655
  },
  {
    "name": "송림062",
    "addr": "동구 금곡로 20",
    "desc": "순창기사식당",
    "center": "송림119안전센터",
    "area": "102",
    "lat": 37.472682,
    "lng": 126.637735
  },
  {
    "name": "송림063",
    "addr": "송림로 139",
    "desc": "로또판매점 앞",
    "center": "송림119안전센터",
    "area": "102",
    "lat": 37.477523,
    "lng": 126.649847
  },
  {
    "name": "송림064",
    "addr": "송림로 149-1",
    "desc": "이불판매점 앞",
    "center": "송림119안전센터",
    "area": "102",
    "lat": 37.477819,
    "lng": 126.650913
  },
  {
    "name": "송림065",
    "addr": "송림로109번길",
    "desc": "인천마늘농산 앞",
    "center": "송림119안전센터",
    "area": "102",
    "lat": 37.478061,
    "lng": 126.6463
  },
  {
    "name": "송림067",
    "addr": "송림로100번길",
    "desc": "농협중앙회 앞",
    "center": "송림119안전센터",
    "area": "102",
    "lat": 37.476012,
    "lng": 126.645596
  },
  {
    "name": "송림068",
    "addr": "동구 새천년로 71-2",
    "desc": "선경인테리어",
    "center": "송림119안전센터",
    "area": "102",
    "lat": 126.648346,
    "lng": 37.474515
  },
  {
    "name": "송림069",
    "addr": "인천광역시 새천년로 20",
    "desc": "동산빌아트앞",
    "center": "송림119안전센터",
    "area": "102",
    "lat": 37.470226,
    "lng": 126.649221
  },
  {
    "name": "송림070",
    "addr": "동구 금곡로 28",
    "desc": "덕성오에스 건너편",
    "center": "송림119안전센터",
    "area": "102",
    "lat": 37.473222,
    "lng": 126.638769
  },
  {
    "name": "송림071",
    "addr": "송림로 61",
    "desc": "삼화페인트",
    "center": "송림119안전센터",
    "area": "102",
    "lat": 37.474961,
    "lng": 126.641691
  },
  {
    "name": "송림072",
    "addr": "송현공원로 28-2",
    "desc": "서부교회 우측",
    "center": "송림119안전센터",
    "area": "102",
    "lat": 37.477801,
    "lng": 126.640811
  },
  {
    "name": "송림073",
    "addr": "동산로 81",
    "desc": "청래옥 앞",
    "center": "송림119안전센터",
    "area": "102",
    "lat": 37.474612,
    "lng": 126.645603
  },
  {
    "name": "송림074",
    "addr": "금곡로 89",
    "desc": "명동칼국수 앞",
    "center": "송림119안전센터",
    "area": "102",
    "lat": 37.473623,
    "lng": 126.644944
  },
  {
    "name": "송림075",
    "addr": "동구 샛골로 128-1",
    "desc": "선이네 가정백반 압",
    "center": "송림119안전센터",
    "area": "102",
    "lat": 37.473715,
    "lng": 126.644327
  },
  {
    "name": "송림076",
    "addr": "금곡로 95",
    "desc": "맘모스정육점",
    "center": "송림119안전센터",
    "area": "102",
    "lat": 37.474047,
    "lng": 126.645409
  },
  {
    "name": "송림077",
    "addr": "동구 샛골로120",
    "desc": "천광한의원앞",
    "center": "송림119안전센터",
    "area": "102",
    "lat": 37.473005,
    "lng": 126.644241
  },
  {
    "name": "송림078",
    "addr": "금곡로 94-1",
    "desc": "새마을금고 앞",
    "center": "송림119안전센터",
    "area": "102",
    "lat": 37.473996,
    "lng": 126.646003
  },
  {
    "name": "송림079",
    "addr": "인천 동구 샛골로 99",
    "desc": "육칠이 동인천점",
    "center": "송림119안전센터",
    "area": "103",
    "lat": 37.471416,
    "lng": 126.64305
  },
  {
    "name": "송림080",
    "addr": "인천 동구 금곡로36번길 47",
    "desc": "대성씨티빌",
    "center": "송림119안전센터",
    "area": "103",
    "lat": 37.472516,
    "lng": 126.641915
  },
  {
    "name": "송림081",
    "addr": "인천광역시 새천년로 38번길 14",
    "desc": "동산2단지 입구 앞",
    "center": "송림119안전센터",
    "area": "103",
    "lat": 37.471785,
    "lng": 126.651575
  },
  {
    "name": "송림082",
    "addr": "동구 재능로 86",
    "desc": "동산휴먼시아206동",
    "center": "송림119안전센터",
    "area": "103",
    "lat": 126.651897,
    "lng": 37.472756
  },
  {
    "name": "송림083",
    "addr": "인천 동구 금곡로66번길 12",
    "desc": "초록아트빌",
    "center": "송림119안전센터",
    "area": "103",
    "lat": 37.472611,
    "lng": 126.642635
  },
  {
    "name": "송림084",
    "addr": "인천 동구 금곡로72번길 1",
    "desc": "신광인테리어",
    "center": "송림119안전센터",
    "area": "103",
    "lat": 37.472767,
    "lng": 126.643567
  },
  {
    "name": "송림085",
    "addr": "인천 동구 샛골로 113",
    "desc": "E있음E수 뷰티",
    "center": "송림119안전센터",
    "area": "103",
    "lat": 37.472405,
    "lng": 126.643783
  },
  {
    "name": "송림086",
    "addr": "인천 동구 금곡로 80",
    "desc": "쓰리랑 퓨전포차",
    "center": "송림119안전센터",
    "area": "103",
    "lat": 37.473177,
    "lng": 126.644475
  },
  {
    "name": "송림087",
    "addr": "인천광역시 우각로 187번길 6",
    "desc": "삼보미용실 우측",
    "center": "송림119안전센터",
    "area": "103",
    "lat": 37.470058,
    "lng": 126.648366
  },
  {
    "name": "송림088",
    "addr": "인천광역시 동산로 36-1",
    "desc": "진양천막",
    "center": "송림119안전센터",
    "area": "103",
    "lat": 37.471457,
    "lng": 126.648853
  },
  {
    "name": "송림089",
    "addr": "인천 동구 동산로 74",
    "desc": "그랜드공인중개사무소",
    "center": "송림119안전센터",
    "area": "103",
    "lat": 37.469766,
    "lng": 126.648767
  },
  {
    "name": "송림090",
    "addr": "동구 우각로13",
    "desc": "그린세제박사",
    "center": "송림119안전센터",
    "area": "103",
    "lat": 37.471287,
    "lng": 126.638507
  },
  {
    "name": "송림091",
    "addr": "동구 서해대로 513번길 4(금창동 16-18)",
    "desc": "공터 전봇대 옆",
    "center": "송림119안전센터",
    "area": "103",
    "lat": 37.471968,
    "lng": 126.637691
  },
  {
    "name": "송림092",
    "addr": "동구 금곡로 7",
    "desc": "삼성서림 앞",
    "center": "송림119안전센터",
    "area": "103",
    "lat": 37.472663,
    "lng": 126.636473
  },
  {
    "name": "송림093",
    "addr": "동구 금곡로 36번길 26(금창동 39-62)",
    "desc": "김인성씨 댁 앞",
    "center": "송림119안전센터",
    "area": "103",
    "lat": 37.472436,
    "lng": 126.640414
  },
  {
    "name": "송림094",
    "addr": "동구 금곡로 20",
    "desc": "두손빌딩 지하주차장 입구 화단 안쪽",
    "center": "송림119안전센터",
    "area": "103",
    "lat": 37.472682,
    "lng": 126.637735
  },
  {
    "name": "송림095",
    "addr": "동구 송림로 12",
    "desc": "솔빛약국 앞",
    "center": "송림119안전센터",
    "area": "103",
    "lat": 37.472991,
    "lng": 126.636686
  },
  {
    "name": "송림096",
    "addr": "인천광역시 동구 송림로 11",
    "desc": "가풍지업사 앞",
    "center": "송림119안전센터",
    "area": "103",
    "lat": 37.473211,
    "lng": 126.636677
  },
  {
    "name": "송림097",
    "addr": "인천광역시 동구 중앙로 4",
    "desc": "송월한미타월백화점",
    "center": "송림119안전센터",
    "area": "103",
    "lat": 37.472924,
    "lng": 126.635787
  },
  {
    "name": "송림098",
    "addr": "금곡로 1",
    "desc": "진종합식품",
    "center": "송림119안전센터",
    "area": "103",
    "lat": 37.472368,
    "lng": 126.636542
  },
  {
    "name": "송림099",
    "addr": "인천광역시 동구 화도진로 5번길 12",
    "desc": "중앙양복점 옆",
    "center": "송림119안전센터",
    "area": "103",
    "lat": 37.473416,
    "lng": 126.63585
  },
  {
    "name": "송림100",
    "addr": "동구 금곡로 36번길 9(금창동 41-13)",
    "desc": "금창동 주민센터 앞",
    "center": "송림119안전센터",
    "area": "103",
    "lat": 37.472825,
    "lng": 126.639978
  },
  {
    "name": "송림101",
    "addr": "동구 우각로 70",
    "desc": "최성호 회계사무소 맞은편",
    "center": "송림119안전센터",
    "area": "103",
    "lat": 37.470542,
    "lng": 126.641452
  },
  {
    "name": "송림103",
    "addr": "인천광역시 동구 송향로 14번길 13",
    "desc": "재개발지역",
    "center": "송림119안전센터",
    "area": "103",
    "lat": 37.479866,
    "lng": 126.652807
  },
  {
    "name": "송림104",
    "addr": "인천광역시 동구 송향로 28-1",
    "desc": "은아슈퍼 앞",
    "center": "송림119안전센터",
    "area": "103",
    "lat": 37.481331,
    "lng": 126.652388
  },
  {
    "name": "송림105",
    "addr": "인천광역시 동구 송향로 32번길 15",
    "desc": "일진자동차 앞골목",
    "center": "송림119안전센터",
    "area": "103",
    "lat": 37.480783,
    "lng": 126.653033
  },
  {
    "name": "송림106",
    "addr": "인천광역시 동구 송향로 2",
    "desc": "동의종합건재 앞",
    "center": "송림119안전센터",
    "area": "103",
    "lat": 37.478813,
    "lng": 126.651269
  },
  {
    "name": "송림107",
    "addr": "인천광역시 동구 봉수대로 9",
    "desc": "마포갈매기 앞",
    "center": "송림119안전센터",
    "area": "103",
    "lat": 37.474461,
    "lng": 126.644212
  },
  {
    "name": "송림109",
    "addr": "인천광역시 동구 송림로 155",
    "desc": "장수보양탕 앞",
    "center": "송림119안전센터",
    "area": "103",
    "lat": 37.477846,
    "lng": 126.651878
  },
  {
    "name": "송림110",
    "addr": "인천광역시 동구 재능로 178",
    "desc": "재능슈퍼 앞",
    "center": "송림119안전센터",
    "area": "103",
    "lat": 37.476186,
    "lng": 126.649432
  },
  {
    "name": "송림112",
    "addr": "인천광역시 동구 송림로 163",
    "desc": "성연자동차 옆",
    "center": "송림119안전센터",
    "area": "103",
    "lat": 37.478501,
    "lng": 126.652685
  },
  {
    "name": "송림113",
    "addr": "인천광역시 동구 재능로 191",
    "desc": "재능대학 서문",
    "center": "송림119안전센터",
    "area": "103",
    "lat": 37.474587,
    "lng": 126.649781
  },
  {
    "name": "송림114",
    "addr": "솔빛로 82",
    "desc": "동구 청소년수련관",
    "center": "송림119안전센터",
    "area": "103",
    "lat": 37.476063,
    "lng": 126.642574
  },
  {
    "name": "송림115",
    "addr": "송림로 67-1",
    "desc": "송림누룽지통닭",
    "center": "송림119안전센터",
    "area": "103",
    "lat": 37.475308,
    "lng": 126.642405
  },
  {
    "name": "송림116",
    "addr": "송림로 79-1",
    "desc": "sk텔레콤 앞",
    "center": "송림119안전센터",
    "area": "103",
    "lat": 37.475742,
    "lng": 126.643408
  },
  {
    "name": "송림117",
    "addr": "동구 송림로 12",
    "desc": "동명헤어숍",
    "center": "송림119안전센터",
    "area": "103",
    "lat": 37.472991,
    "lng": 126.636686
  },
  {
    "name": "송림118",
    "addr": "금곡로 1",
    "desc": "불교용품점",
    "center": "송림119안전센터",
    "area": "103",
    "lat": 37.472368,
    "lng": 126.636542
  },
  {
    "name": "송림119",
    "addr": "동구 금곡로 36번길 9(금창동 41-13)",
    "desc": "동구약국",
    "center": "송림119안전센터",
    "area": "103",
    "lat": 37.472825,
    "lng": 126.639978
  },
  {
    "name": "송림120",
    "addr": "샛골로 139",
    "desc": "호텔아이 앞",
    "center": "송림119안전센터",
    "area": "103",
    "lat": 37.474995,
    "lng": 126.644277
  },
  {
    "name": "송림121",
    "addr": "인천광역시 동구 솔빛로91번길 57",
    "desc": "서흥초교 후문",
    "center": "송림119안전센터",
    "area": "103",
    "lat": 37.478769,
    "lng": 126.643937
  },
  {
    "name": "송림122",
    "addr": "인천광역시 동구 샛골로 177",
    "desc": "노인복지회관 앞",
    "center": "송림119안전센터",
    "area": "103",
    "lat": 37.478132,
    "lng": 126.644974
  },
  {
    "name": "송림123",
    "addr": "동구새천년로 38번길 11",
    "desc": "재능대학교정문",
    "center": "송림119안전센터",
    "area": "103",
    "lat": 126.649759,
    "lng": 37.472216
  },
  {
    "name": "송림124",
    "addr": "동구 재능로 191",
    "desc": "동산휴먼시아103동",
    "center": "송림119안전센터",
    "area": "103",
    "lat": 126.649102,
    "lng": 37.475443
  },
  {
    "name": "송림125",
    "addr": "동구 금곡로 112",
    "desc": "그린슈퍼",
    "center": "송림119안전센터",
    "area": "103",
    "lat": 126.647389,
    "lng": 37.474691
  },
  {
    "name": "송림126",
    "addr": "동산로 90",
    "desc": "송림우체국",
    "center": "송림119안전센터",
    "area": "103",
    "lat": 37.475327,
    "lng": 126.645161
  },
  {
    "name": "송림127",
    "addr": "인천광역시 동구 재능로180번길 24",
    "desc": "송림4동 성당",
    "center": "송림119안전센터",
    "area": "103",
    "lat": 37.4763068,
    "lng": 126.651624
  },
  {
    "name": "송림128",
    "addr": "인천광역시 동구 송미로 20번길 13",
    "desc": "롯데빌라 앞",
    "center": "송림119안전센터",
    "area": "103",
    "lat": 37.481173,
    "lng": 126.649165
  },
  {
    "name": "송림129",
    "addr": "동구 샛골로 132",
    "desc": "다채쌈밥",
    "center": "송림119안전센터",
    "area": "103",
    "lat": 126.644333,
    "lng": 37.474196
  },
  {
    "name": "송림501",
    "addr": "동구 송림로70번길 10",
    "desc": "동명초 정문",
    "center": "송림119안전센터",
    "area": "103",
    "lat": 126.642879,
    "lng": 37.475123
  },
  {
    "name": "송림502",
    "addr": "샛골로 169",
    "desc": "송림1동 주민센터 앞",
    "center": "송림119안전센터",
    "area": "103",
    "lat": 37.476562,
    "lng": 126.640255
  },
  {
    "name": "송림503",
    "addr": "동산로 88",
    "desc": "삼우산업 앞",
    "center": "송림119안전센터",
    "area": "103",
    "lat": 37.476998,
    "lng": 126.641349
  },
  {
    "name": "송림504",
    "addr": "샛골로 168",
    "desc": "형제닭알탕 앞",
    "center": "송림119안전센터",
    "area": "103",
    "lat": 37.477601,
    "lng": 126.644731
  },
  {
    "name": "송림505",
    "addr": "동구 샛골로161번길 20",
    "desc": "예천방앗간",
    "center": "송림119안전센터",
    "area": "103",
    "lat": 126.643596,
    "lng": 37.477005
  },
  {
    "name": "송림506",
    "addr": "인천광역시 동구 샛골로 171번길 17",
    "desc": "수정포장마차 앞",
    "center": "송림119안전센터",
    "area": "103",
    "lat": 37.477775,
    "lng": 126.643978
  },
  {
    "name": "송림507",
    "addr": "동구 샛골로161번길 32",
    "desc": "샤론할인마트",
    "center": "송림119안전센터",
    "area": "103",
    "lat": 126.642433,
    "lng": 37.47718
  },
  {
    "name": "송림508",
    "addr": "인천광역시 동구 안송로 61",
    "desc": "서흥보일러 앞",
    "center": "송림119안전센터",
    "area": "103",
    "lat": 37.478057,
    "lng": 126.642614
  },
  {
    "name": "송림509",
    "addr": "인천광역시 동구 안송로84번길 1",
    "desc": "동일사 앞",
    "center": "송림119안전센터",
    "area": "103",
    "lat": 37.479047,
    "lng": 126.643006
  },
  {
    "name": "송림510",
    "addr": "인천광역시 동구 안송로69번길 6",
    "desc": "송림 2동 135-5",
    "center": "송림119안전센터",
    "area": "103",
    "lat": 37.478521,
    "lng": 126.642412
  },
  {
    "name": "송림511",
    "addr": "인천광역시 동구 금곡로 81번길 25",
    "desc": "수정여관 앞",
    "center": "송림119안전센터",
    "area": "103",
    "lat": 37.474427,
    "lng": 126.644745
  },
  {
    "name": "송림512",
    "addr": "인천광역시 동구 샛골로 110번길 27",
    "desc": "최병일씨댁 앞",
    "center": "송림119안전센터",
    "area": "103",
    "lat": 37.471639,
    "lng": 126.645111
  },
  {
    "name": "송림513",
    "addr": "인천광역시 동구 우각로 147번길 26",
    "desc": "청솔아트빌",
    "center": "송림119안전센터",
    "area": "103",
    "lat": 37.471639,
    "lng": 126.645111
  },
  {
    "name": "송림514",
    "addr": "인천광역시 동산로41번길 10",
    "desc": "한아름마트 앞",
    "center": "송림119안전센터",
    "area": "103",
    "lat": 37.471381,
    "lng": 126.647782
  },
  {
    "name": "송림515",
    "addr": "인천광역시 새천년로 17",
    "desc": "언니밥줘 기사식당",
    "center": "송림119안전센터",
    "area": "103",
    "lat": 37.470466,
    "lng": 126.648697
  },
  {
    "name": "송림516",
    "addr": "인천광역시 새천년로 23",
    "desc": "동산타이어",
    "center": "송림119안전센터",
    "area": "103",
    "lat": 37.470783,
    "lng": 126.648717
  },
  {
    "name": "송림517",
    "addr": "동산로 88",
    "desc": "동제한약방 앞",
    "center": "송림119안전센터",
    "area": "103",
    "lat": 37.475402,
    "lng": 126.645482
  },
  {
    "name": "송림518",
    "addr": "동구 동산로64번길 5-13",
    "desc": "벧엘인테리어",
    "center": "송림119안전센터",
    "area": "103",
    "lat": 126.646577,
    "lng": 37.474221
  },
  {
    "name": "송림519",
    "addr": "동구 금곡로 104",
    "desc": "대청마루감자탕",
    "center": "송림119안전센터",
    "area": "103",
    "lat": 126.652726,
    "lng": 37.479467
  },
  {
    "name": "송림520",
    "addr": "동구 금곡로 112번길 27",
    "desc": "박흥운씨댁 옆",
    "center": "송림119안전센터",
    "area": "103",
    "lat": 126.650838,
    "lng": 37.477702
  },
  {
    "name": "송림521",
    "addr": "동구 금곡로103번길 5",
    "desc": "충효태권도",
    "center": "송림119안전센터",
    "area": "103",
    "lat": 126.642816,
    "lng": 37.472374
  },
  {
    "name": "송림522",
    "addr": "인천광역시 동구 새천년로34번길 32-1",
    "desc": "보쌈나라 앞",
    "center": "송림119안전센터",
    "area": "103",
    "lat": 37.471642,
    "lng": 126.649658
  },
  {
    "name": "송림523",
    "addr": "인천광역시 동구 재능로17",
    "desc": "예성아파트정문",
    "center": "송림119안전센터",
    "area": "103",
    "lat": 37.471033,
    "lng": 126.649963
  },
  {
    "name": "송림524",
    "addr": "송림로 97",
    "desc": "강낭타일 옆",
    "center": "송림119안전센터",
    "area": "103",
    "lat": 37.474707,
    "lng": 126.640529
  },
  {
    "name": "송림525",
    "addr": "송림로 97",
    "desc": "보명약국",
    "center": "송림119안전센터",
    "area": "103",
    "lat": 37.476487,
    "lng": 126.637437
  },
  {
    "name": "송림526",
    "addr": "인천광역시 동구 송향로 35번길 26-2",
    "desc": "쉼터빌리지 A동",
    "center": "송림119안전센터",
    "area": "103",
    "lat": 37.482947,
    "lng": 126.651705
  },
  {
    "name": "송림527",
    "addr": "인천광역시 동구 봉수대로 5-1",
    "desc": "쌍용자원(고물)",
    "center": "송림119안전센터",
    "area": "103",
    "lat": 37.479285,
    "lng": 126.653498
  },
  {
    "name": "송림528",
    "addr": "인천광역시 동구 송림로 143",
    "desc": "우연상회 앞",
    "center": "송림119안전센터",
    "area": "103",
    "lat": 37.477542,
    "lng": 126.650649
  },
  {
    "name": "송림529",
    "addr": "동구 샛골로 103",
    "desc": "한미사",
    "center": "송림119안전센터",
    "area": "103",
    "lat": 37.471722,
    "lng": 126.643358
  },
  {
    "name": "송림530",
    "addr": "동구 샛골로 86",
    "desc": "카드기 건물 암",
    "center": "송림119안전센터",
    "area": "103",
    "lat": 37.470341,
    "lng": 126.64247
  },
  {
    "name": "송림531",
    "addr": "동구 샛골로 93-1",
    "desc": "희누리 쌀 도매소 암",
    "center": "송림119안전센터",
    "area": "103",
    "lat": 37.471084,
    "lng": 126.642692
  },
  {
    "name": "송림532",
    "addr": "동구 우각로 62/창영사 앞",
    "desc": "창영사회복지관 앞 도로",
    "center": "송림119안전센터",
    "area": "103",
    "lat": 37.470467,
    "lng": 126.640913
  },
  {
    "name": "송림533",
    "addr": "동구 우각로 32번길5",
    "desc": "금곡동 육교앞",
    "center": "송림119안전센터",
    "area": "103",
    "lat": 37.470604,
    "lng": 126.639328
  },
  {
    "name": "송림534",
    "addr": "동구 서해대로 513번길12",
    "desc": "다모아문구사 옆 골목",
    "center": "송림119안전센터",
    "area": "103",
    "lat": 37.472834,
    "lng": 126.636025
  },
  {
    "name": "송림535",
    "addr": "동구 우각로 32번길5",
    "desc": "동구청주차장 맞은편 골목",
    "center": "송림119안전센터",
    "area": "103",
    "lat": 37.470604,
    "lng": 126.639328
  },
  {
    "name": "송림536",
    "addr": "동구 서해대로 513번길12",
    "desc": "동명초 후문 우측",
    "center": "송림119안전센터",
    "area": "103",
    "lat": 37.472834,
    "lng": 126.636025
  },
  {
    "name": "송림537",
    "addr": "인천광역시 동구 송림로 26-2",
    "desc": "참농부들빵집 옆",
    "center": "송림119안전센터",
    "area": "103",
    "lat": 37.473576,
    "lng": 126.638113
  },
  {
    "name": "송림538",
    "addr": "인천광역시 동구 화도진로7번길 11-1",
    "desc": "대성플라스틱 건물 앞",
    "center": "송림119안전센터",
    "area": "103",
    "lat": 37.473596,
    "lng": 126.635615
  },
  {
    "name": "송림539",
    "addr": "동구 서해대로 513번길12",
    "desc": "삼익아파트 정문",
    "center": "송림119안전센터",
    "area": "103",
    "lat": 37.472834,
    "lng": 126.636025
  },
  {
    "name": "송림540",
    "addr": "송림로 51-1",
    "desc": "백세건강원 앞",
    "center": "송림119안전센터",
    "area": "103",
    "lat": 37.47476,
    "lng": 126.6407
  },
  {
    "name": "송림541",
    "addr": "인천광역시 동구 송림로 17",
    "desc": "교촌치킨 앞",
    "center": "송림119안전센터",
    "area": "103",
    "lat": 37.473508,
    "lng": 126.637162
  },
  {
    "name": "송림542",
    "addr": "송림로 43번길 42",
    "desc": "송림1동 주민센터 앞",
    "center": "송림119안전센터",
    "area": "103",
    "lat": 37.476562,
    "lng": 126.640255
  },
  {
    "name": "송림543",
    "addr": "안송로 39번길 21",
    "desc": "은하수 이용원",
    "center": "송림119안전센터",
    "area": "103",
    "lat": 37.476998,
    "lng": 126.641349
  },
  {
    "name": "송림544",
    "addr": "송림로51-1",
    "desc": "강낭타일 옆",
    "center": "송림119안전센터",
    "area": "103",
    "lat": 37.474707,
    "lng": 126.640529
  },
  {
    "name": "송림701",
    "addr": "동구 송림로 122",
    "desc": "힘찬장어",
    "center": "송림119안전센터",
    "area": "103",
    "lat": 126.648527,
    "lng": 37.476813
  },
  {
    "name": "송림702",
    "addr": "인천광역시 동구 송림로 41",
    "desc": "영선목재 맞은편",
    "center": "송림119안전센터",
    "area": "103",
    "lat": 37.474521,
    "lng": 126.650277
  },
  {
    "name": "송림703",
    "addr": "동구 우각로 62/창영사 앞",
    "desc": "한우리마트",
    "center": "송림119안전센터",
    "area": "103",
    "lat": 37.470467,
    "lng": 126.640913
  },
  {
    "name": "송림704",
    "addr": "솔빛로 64",
    "desc": "그랜드마트 앞",
    "center": "송림119안전센터",
    "area": "103",
    "lat": 37.476672,
    "lng": 126.640676
  },
  {
    "name": "송림705",
    "addr": "인천광역시 새처년로 23",
    "desc": "동산타이어",
    "center": "송림119안전센터",
    "area": "103",
    "lat": 37.470655,
    "lng": 126.648723
  },
  {
    "name": "송림706",
    "addr": "인천광역시 동구 송림로 14",
    "desc": "한일지업사 앞 차도",
    "center": "송림119안전센터",
    "area": "103",
    "lat": 37.4734304201433,
    "lng": 126.636932827317
  },
  {
    "name": "송림707",
    "addr": "샛골로 147",
    "desc": "모밀촌 앞",
    "center": "송림119안전센터",
    "area": "103",
    "lat": 37.475624,
    "lng": 126.644329
  },
  {
    "name": "송림801",
    "addr": "샛골로 169",
    "desc": "중앙치과 앞",
    "center": "송림119안전센터",
    "area": "103",
    "lat": 37.477772,
    "lng": 126.644759
  },
  {
    "name": "송림802",
    "addr": "인천광역시 동구 재능로 194",
    "desc": "파인엔유 컴포즈 앞",
    "center": "송림119안전센터",
    "area": "103",
    "lat": 37.477896,
    "lng": 126.650439
  },
  {
    "name": "송림803",
    "addr": "인천광역시 동산로 49",
    "desc": "동산목재 앞",
    "center": "송림119안전센터",
    "area": "103",
    "lat": 37.476959,
    "lng": 126.640302
  },
  {
    "name": "송현002",
    "addr": "방축로 82",
    "desc": "유통센터주유소 앞",
    "center": "송현119안전센터",
    "area": "103",
    "lat": 37.484202,
    "lng": 126.654344
  },
  {
    "name": "송현003",
    "addr": "방축로177번길 17",
    "desc": "JS에너지 정문 좌측",
    "center": "송현119안전센터",
    "area": "103",
    "lat": 37.480884,
    "lng": 126.664926
  },
  {
    "name": "송현004",
    "addr": "인천광역시 동구 방축로 167번길 41",
    "desc": "한일열처리 맞은편\n청기와장례식장 담장 옆",
    "center": "송현119안전센터",
    "area": "103",
    "lat": 37.482125,
    "lng": 126.664553
  },
  {
    "name": "송현005",
    "addr": "봉수대로 101",
    "desc": "해바라기 주유소 앞",
    "center": "송현119안전센터",
    "area": "103",
    "lat": 37.484729,
    "lng": 126.66003
  },
  {
    "name": "송현006",
    "addr": "인천광역시 동구 방축로 167",
    "desc": "DS이엘씨 담장 옆",
    "center": "송현119안전센터",
    "area": "103",
    "lat": 37.480943,
    "lng": 126.663611
  },
  {
    "name": "송현007",
    "addr": "방축로191번길 21-2",
    "desc": "두리식당 우측 전주 옆",
    "center": "송현119안전센터",
    "area": "103",
    "lat": 37.480306,
    "lng": 126.666319
  },
  {
    "name": "송현008",
    "addr": "봉수대로 98",
    "desc": "송림공구 동암화공약품 앞 전신주 옆",
    "center": "송현119안전센터",
    "area": "103",
    "lat": 37.484575,
    "lng": 126.660353
  },
  {
    "name": "송현009",
    "addr": "방축로 191",
    "desc": "인천교자동차 매매단지 이화당 약국",
    "center": "송현119안전센터",
    "area": "103",
    "lat": 37.479507,
    "lng": 126.665485
  },
  {
    "name": "송현010",
    "addr": "인천광역시 동구 방축로 153",
    "desc": "동우철재상가L동 동호금속 앞",
    "center": "송현119안전센터",
    "area": "103",
    "lat": 37.481133,
    "lng": 126.662247
  },
  {
    "name": "송현011",
    "addr": "동구 방축로 58",
    "desc": "중앙공구상가 B동 앞",
    "center": "송현119안전센터",
    "area": "103",
    "lat": 37.484985,
    "lng": 126.652112
  },
  {
    "name": "송현012",
    "addr": "염전로 83",
    "desc": "대주산업 정문",
    "center": "송현119안전센터",
    "area": "103",
    "lat": 37.482227,
    "lng": 126.652881
  },
  {
    "name": "송현013",
    "addr": "방축로 231",
    "desc": "인천의료원 옆 버스정류장",
    "center": "송현119안전센터",
    "area": "103",
    "lat": 37.478568,
    "lng": 126.667326
  },
  {
    "name": "송현014",
    "addr": "방축로 139",
    "desc": "인천교사거리 시민운동장 화단옆",
    "center": "송현119안전센터",
    "area": "103",
    "lat": 37.476964,
    "lng": 126.670753
  },
  {
    "name": "송현015",
    "addr": "동구 방축로62번길 37",
    "desc": "유진기업 앞",
    "center": "송현119안전센터",
    "area": "103",
    "lat": 37.483237,
    "lng": 126.651571
  },
  {
    "name": "송현019",
    "addr": "염전로 26",
    "desc": "SK네트워크 매매단지 횡단보도 앞",
    "center": "송현119안전센터",
    "area": "103",
    "lat": 37.4855221,
    "lng": 126.6475081
  },
  {
    "name": "송현020",
    "addr": "염전로 12",
    "desc": "펌프텍코리아㈜ 앞",
    "center": "송현119안전센터",
    "area": "103",
    "lat": 37.4861181,
    "lng": 126.6466751
  },
  {
    "name": "송현021",
    "addr": "염전로 17",
    "desc": "철재상가 P동 101호 (성진건재산업) 앞",
    "center": "송현119안전센터",
    "area": "103",
    "lat": 37.4858401,
    "lng": 126.6474141
  },
  {
    "name": "송현022",
    "addr": "송미로23번길 24",
    "desc": "귀빈한식부페 좌측 전신주",
    "center": "송현119안전센터",
    "area": "103",
    "lat": 37.4827491,
    "lng": 126.6479531
  },
  {
    "name": "송현023",
    "addr": "인천광역시 동구 방축로 157번길 24",
    "desc": "현대판금도장 정문 좌측",
    "center": "송현119안전센터",
    "area": "103",
    "lat": 37.48194,
    "lng": 126.66321
  },
  {
    "name": "송현024",
    "addr": "동구 방축로62번길 16",
    "desc": "중앙동력상가 B동 동편",
    "center": "송현119안전센터",
    "area": "103",
    "lat": 37.486326,
    "lng": 126.650922
  },
  {
    "name": "송현026",
    "addr": "인천광역시 동구 방축로 9번길 60",
    "desc": "영일볼트 정문 우측",
    "center": "송현119안전센터",
    "area": "103",
    "lat": 37.48997,
    "lng": 126.6501
  },
  {
    "name": "송현031",
    "addr": "인천광역시 동구 중봉대로 100",
    "desc": "철재상가C동 앞",
    "center": "송현119안전센터",
    "area": "103",
    "lat": 37.488064,
    "lng": 126.647634
  },
  {
    "name": "송현033",
    "addr": "동구 중봉대로 6",
    "desc": "송현1차 상가 모퉁이",
    "center": "송현119안전센터",
    "area": "103",
    "lat": 37.481443,
    "lng": 126.640207
  },
  {
    "name": "송현034",
    "addr": "인천광역시 동구 샛골로 230-1",
    "desc": "송현주공 후문 횡단보도 앞",
    "center": "송현119안전센터",
    "area": "103",
    "lat": 37.4823031,
    "lng": 126.6441351
  },
  {
    "name": "송현035",
    "addr": "동구 중봉대로 48",
    "desc": "대현빌딩 옆 경기실업 담장",
    "center": "송현119안전센터",
    "area": "103",
    "lat": 37.485518,
    "lng": 126.644461
  },
  {
    "name": "송현036",
    "addr": "동구 염전로4",
    "desc": "봉현골재(아세아골재) 입구 우측",
    "center": "송현119안전센터",
    "area": "103",
    "lat": 37.486767,
    "lng": 126.645798
  },
  {
    "name": "송현037",
    "addr": "인천광역시 동구 방축로 23번길 30",
    "desc": "컬러우드 마켓 정문 우측",
    "center": "송현119안전센터",
    "area": "103",
    "lat": 37.488081,
    "lng": 126.650254
  },
  {
    "name": "송현038",
    "addr": "인천광역시 동구 방축로 9번길 40",
    "desc": "MS 가스",
    "center": "송현119안전센터",
    "area": "103",
    "lat": 37.489362,
    "lng": 126.650254
  },
  {
    "name": "송현039",
    "addr": "인천광역시 동구 방축로 37번길 37",
    "desc": "CU 송현하늘점 주차장 앞",
    "center": "송현119안전센터",
    "area": "103",
    "lat": 37.487786,
    "lng": 126.651662
  },
  {
    "name": "송현040",
    "addr": "인천광역시 동구 방축로 23번길 25",
    "desc": "봉림실업 앞",
    "center": "송현119안전센터",
    "area": "103",
    "lat": 37.488108,
    "lng": 126.64795
  },
  {
    "name": "송현041",
    "addr": "인천광역시 동구 방축로 23번길 55",
    "desc": "MASTA A/S정비점 앞",
    "center": "송현119안전센터",
    "area": "103",
    "lat": 37.489142,
    "lng": 126.651002
  },
  {
    "name": "송현042",
    "addr": "인천광역시 동구 방축로 157번길 48",
    "desc": "핸인핸 입구 우측",
    "center": "송현119안전센터",
    "area": "103",
    "lat": 37.482936,
    "lng": 126.664021
  },
  {
    "name": "송현043",
    "addr": "동구 중봉대로 68",
    "desc": "㈜인천현대모터스 입구",
    "center": "송현119안전센터",
    "area": "103",
    "lat": 37.485816,
    "lng": 126.64474
  },
  {
    "name": "송현044",
    "addr": "인천광역시 동구 방축로 23번길 40",
    "desc": "인천자동차서비스 입구 맞은편",
    "center": "송현119안전센터",
    "area": "103",
    "lat": 37.488622,
    "lng": 126.650708
  },
  {
    "name": "송현045",
    "addr": "동구 중봉대로 15",
    "desc": "동국제강 정문 우측",
    "center": "송현119안전센터",
    "area": "103",
    "lat": 37.482617,
    "lng": 126.640786
  },
  {
    "name": "송현046",
    "addr": "봉수대로 83",
    "desc": "태양산업 정문 좌측",
    "center": "송현119안전센터",
    "area": "103",
    "lat": 37.483531,
    "lng": 126.659281
  },
  {
    "name": "송현047",
    "addr": "동구 중봉대로 73",
    "desc": "현대제철 연구동 정문앞",
    "center": "송현119안전센터",
    "area": "103",
    "lat": 37.486122,
    "lng": 126.644536
  },
  {
    "name": "송현048",
    "addr": "동구 중봉대로 48",
    "desc": "하이트진로(주) 인천물류센터 입구 우측",
    "center": "송현119안전센터",
    "area": "103",
    "lat": 37.484036,
    "lng": 126.642891
  },
  {
    "name": "송현049",
    "addr": "동구 방축로 36",
    "desc": "금홍실업 앞",
    "center": "송현119안전센터",
    "area": "103",
    "lat": 37.486518,
    "lng": 126.649913
  },
  {
    "name": "송현050",
    "addr": "인천광역시 동구 방축로 157번길 48",
    "desc": "DS이엘씨 정문 앞",
    "center": "송현119안전센터",
    "area": "103",
    "lat": 37.480488,
    "lng": 126.663544
  },
  {
    "name": "송현051",
    "addr": "인천광역시 동구 방축로 37번길 61-3",
    "desc": "정성빌딩 앞",
    "center": "송현119안전센터",
    "area": "103",
    "lat": 37.488543,
    "lng": 126.652416
  },
  {
    "name": "송현052",
    "addr": "봉수대로 82",
    "desc": "이마트 버스정류장 전신주 옆",
    "center": "송현119안전센터",
    "area": "103",
    "lat": 37.483005,
    "lng": 126.659394
  },
  {
    "name": "송현053",
    "addr": "방축로83번길 23",
    "desc": "산업유통센터 3단지23동 앞",
    "center": "송현119안전센터",
    "area": "103",
    "lat": 37.484112,
    "lng": 126.655344
  },
  {
    "name": "송현054",
    "addr": "염전로40번길 29",
    "desc": "고려타일컷팅 입구 좌측",
    "center": "송현119안전센터",
    "area": "103",
    "lat": 37.4834101,
    "lng": 126.6485011
  },
  {
    "name": "송현055",
    "addr": "동구 방축로 54",
    "desc": "중앙공구상가 앞",
    "center": "송현119안전센터",
    "area": "103",
    "lat": 37.485349,
    "lng": 126.651678
  },
  {
    "name": "송현056",
    "addr": "인천광역시 동구 방축로 9번길 15",
    "desc": "대산공업사 앞",
    "center": "송현119안전센터",
    "area": "103",
    "lat": 37.48886,
    "lng": 126.6476
  },
  {
    "name": "송현057",
    "addr": "인천광역시 동구 방축로 9번길 57-18",
    "desc": "한일철마트 옆 보도 가로등 부근",
    "center": "송현119안전센터",
    "area": "103",
    "lat": 37.490753,
    "lng": 126.648006
  },
  {
    "name": "송현058",
    "addr": "인천광역시 동구 방축로 157번길 45",
    "desc": "대명산기 담장",
    "center": "송현119안전센터",
    "area": "103",
    "lat": 37.48287,
    "lng": 126.663471
  },
  {
    "name": "송현059",
    "addr": "방축로177번길 31",
    "desc": "청기와장례식장 담장",
    "center": "송현119안전센터",
    "area": "103",
    "lat": 37.481659,
    "lng": 126.6655
  },
  {
    "name": "송현060",
    "addr": "인천광역시 동구 방축로 9번길 29",
    "desc": "현대글로비스 정문 우측",
    "center": "송현119안전센터",
    "area": "103",
    "lat": 37.488826,
    "lng": 126.648959
  },
  {
    "name": "송현061",
    "addr": "인천광역시 동구 방축로 16",
    "desc": "철재단지 F동 세경종합배관 앞",
    "center": "송현119안전센터",
    "area": "103",
    "lat": 37.487455,
    "lng": 126.648508
  },
  {
    "name": "송현062",
    "addr": "방축로177번길 30",
    "desc": "신정산업 정문좌측",
    "center": "송현119안전센터",
    "area": "103",
    "lat": 37.481171,
    "lng": 126.665267
  },
  {
    "name": "송현063",
    "addr": "인천광역시 동구 방축로 39",
    "desc": "송현119안전센터 우측",
    "center": "송현119안전센터",
    "area": "103",
    "lat": 37.486358,
    "lng": 126.650923
  },
  {
    "name": "송현064",
    "addr": "인천광역시 동구 방축로 17",
    "desc": "쌍용자동차 정비사업소 입구 우측",
    "center": "송현119안전센터",
    "area": "103",
    "lat": 37.487496,
    "lng": 126.648894
  },
  {
    "name": "송현065",
    "addr": "인천광역시 동구 송현공원로 75-22",
    "desc": "송현근린공원(수도국산공원) 동쪽 벤치 옆",
    "center": "송현119안전센터",
    "area": "103",
    "lat": 37.4801531,
    "lng": 126.6421721
  },
  {
    "name": "송현066",
    "addr": "수문통로 21",
    "desc": "학림샤시유리 앞",
    "center": "송현119안전센터",
    "area": "103",
    "lat": 37.4784991,
    "lng": 126.6328991
  },
  {
    "name": "송현069",
    "addr": "인천광역시 동구 송현로 39",
    "desc": "술빛주공2차 201동",
    "center": "송현119안전센터",
    "area": "103",
    "lat": 37.4798581,
    "lng": 126.6346561
  },
  {
    "name": "송현070",
    "addr": "인천광역시 동구 송현로29번길 15",
    "desc": "중앙장로교회 정문",
    "center": "송현119안전센터",
    "area": "103",
    "lat": 37.4791841,
    "lng": 126.6345551
  },
  {
    "name": "송현071",
    "addr": "화도진로 52",
    "desc": "이영우 내과 앞",
    "center": "송현119안전센터",
    "area": "103",
    "lat": 37.4769271,
    "lng": 126.6332111
  },
  {
    "name": "송현072",
    "addr": "화도진로 41-1",
    "desc": "우일상사 앞",
    "center": "송현119안전센터",
    "area": "103",
    "lat": 37.476216,
    "lng": 126.633669
  },
  {
    "name": "송현073",
    "addr": "인천광역시 동구 수문통로 78",
    "desc": "송현변전소 정문 버스정류장",
    "center": "송현119안전센터",
    "area": "103",
    "lat": 37.4819221,
    "lng": 126.6373501
  },
  {
    "name": "송현074",
    "addr": "인천광역시 동구 샛골로 201",
    "desc": "버스정류장 공중전화",
    "center": "송현119안전센터",
    "area": "103",
    "lat": 37.4803041,
    "lng": 126.6453921
  },
  {
    "name": "송현075",
    "addr": "인천광역시 동구 샛골로193번길 20",
    "desc": "삼부APT정문좌측서쪽",
    "center": "송현119안전센터",
    "area": "103",
    "lat": 37.4801171,
    "lng": 126.6439791
  },
  {
    "name": "송현076",
    "addr": "인천광역시 동구 샛골로193번길 12",
    "desc": "풍원프라자(회관)맞은편(서흥초등학교담옆)남쪽",
    "center": "송현119안전센터",
    "area": "104",
    "lat": 37.4798461,
    "lng": 126.6446841
  },
  {
    "name": "송현077",
    "addr": "화도진로 38",
    "desc": "경기다방 앞",
    "center": "송현119안전센터",
    "area": "104",
    "lat": 37.476089,
    "lng": 126.634125
  },
  {
    "name": "송현078",
    "addr": "인천광역시 동구 화도진로 35",
    "desc": "미림극장 앞",
    "center": "송현119안전센터",
    "area": "104",
    "lat": 37.4755561,
    "lng": 126.6344231
  },
  {
    "name": "송현079",
    "addr": "인천광역시 동구 화도진로 17-1",
    "desc": "이조그릇백화점 앞",
    "center": "송현119안전센터",
    "area": "104",
    "lat": 37.4748151,
    "lng": 126.6352371
  },
  {
    "name": "송현080",
    "addr": "인천광역시 동구 화도진로 28-2",
    "desc": "경진상사",
    "center": "송현119안전센터",
    "area": "104",
    "lat": 37.4753861,
    "lng": 126.6348121
  },
  {
    "name": "송현081",
    "addr": "인천광역시 동구 수문통로 52",
    "desc": "송현동성당 정문",
    "center": "송현119안전센터",
    "area": "104",
    "lat": 37.4802441,
    "lng": 126.6351761
  },
  {
    "name": "송현082",
    "addr": "인천광역시 동구 화수로 38",
    "desc": "동부아파트 4동",
    "center": "송현119안전센터",
    "area": "104",
    "lat": 37.4820981,
    "lng": 126.6341851
  },
  {
    "name": "송현083",
    "addr": "인천광역시 동구 중앙로 40-1",
    "desc": "인천누비 이브자리 앞",
    "center": "송현119안전센터",
    "area": "104",
    "lat": 37.4743791,
    "lng": 126.6343951
  },
  {
    "name": "송현085",
    "addr": "인천광역시 동구 화도진로 35번길 14-1",
    "desc": "청실홍실 고전방 옆골목",
    "center": "송현119안전센터",
    "area": "104",
    "lat": 37.4755141,
    "lng": 126.6330981
  },
  {
    "name": "송현086",
    "addr": "인천광역시 동구 화도진로 41번길 14",
    "desc": "삼성침구류 맞은 편",
    "center": "송현119안전센터",
    "area": "104",
    "lat": 37.4759501,
    "lng": 126.6326571
  },
  {
    "name": "송현087",
    "addr": "인천광역시 동구 화도진로 43번길 9-1",
    "desc": "순대골목(통닭명가 앞)",
    "center": "송현119안전센터",
    "area": "104",
    "lat": 37.4761761,
    "lng": 126.6330511
  },
  {
    "name": "송현091",
    "addr": "송현로59번길 2-6",
    "desc": "문은혜 프로헤어 앞",
    "center": "송현119안전센터",
    "area": "104",
    "lat": 37.4806431,
    "lng": 126.6381181
  },
  {
    "name": "송현093",
    "addr": "송현로 50",
    "desc": "솔빛주공1차상가 B동 앞 인도상",
    "center": "송현119안전센터",
    "area": "104",
    "lat": 37.4793891,
    "lng": 126.6363471
  },
  {
    "name": "송현094",
    "addr": "인천광역시 동구 송현공원로 58",
    "desc": "향적사아래주차장",
    "center": "송현119안전센터",
    "area": "104",
    "lat": 37.4788691,
    "lng": 126.6420271
  },
  {
    "name": "송현098",
    "addr": "인천광역시 동구 송현로 18",
    "desc": "형제상회 앞",
    "center": "송현119안전센터",
    "area": "104",
    "lat": 37.4778441,
    "lng": 126.6346731
  },
  {
    "name": "송현100",
    "addr": "인천광역시 동구 송현로29번길 15",
    "desc": "중앙교회 입구",
    "center": "송현119안전센터",
    "area": "104",
    "lat": 37.4793951,
    "lng": 126.6343381
  },
  {
    "name": "송현101",
    "addr": "인천광역시 동구 화도진로 21번길 5-2",
    "desc": "해와달 보살 옆 골목",
    "center": "송현119안전센터",
    "area": "104",
    "lat": 37.4746261,
    "lng": 126.6349451
  },
  {
    "name": "송현102",
    "addr": "송현로 55-5",
    "desc": "솔빛주공206동 담장 너머 건물 사이 철제계단 아래",
    "center": "송현119안전센터",
    "area": "104",
    "lat": 37.4806171,
    "lng": 126.6374421
  },
  {
    "name": "송현104",
    "addr": "인천광역시 동구 송화로44번길 1",
    "desc": "세계목욕탕 옆 공원",
    "center": "송현119안전센터",
    "area": "104",
    "lat": 37.4805541,
    "lng": 126.6331271
  },
  {
    "name": "송현106",
    "addr": "인천광역시 동구 화도진로 27번길 4",
    "desc": "신신여인숙 앞",
    "center": "송현119안전센터",
    "area": "104",
    "lat": 37.4751291,
    "lng": 126.6344701
  },
  {
    "name": "송현107",
    "addr": "인천광역시 동구 화수로 38",
    "desc": "동부아파트 정문",
    "center": "송현119안전센터",
    "area": "104",
    "lat": 37.4814221,
    "lng": 126.6361851
  },
  {
    "name": "송현109",
    "addr": "인천광역시 동구 송현로 4",
    "desc": "조선제일용커피 앞",
    "center": "송현119안전센터",
    "area": "104",
    "lat": 37.4768561,
    "lng": 126.6336221
  },
  {
    "name": "송현110",
    "addr": "인천광역시 동구 중봉대로 113-134",
    "desc": "그로비스 정문 우측",
    "center": "송현119안전센터",
    "area": "104",
    "lat": 37.495525,
    "lng": 126.641281
  },
  {
    "name": "송현111",
    "addr": "동구 염전로 45",
    "desc": "선미자원 앞",
    "center": "송현119안전센터",
    "area": "104",
    "lat": 37.484996,
    "lng": 126.649981
  },
  {
    "name": "송현112",
    "addr": "동구 염전로 46",
    "desc": "라온텍 앞",
    "center": "송현119안전센터",
    "area": "104",
    "lat": 37.483907,
    "lng": 126.649078
  },
  {
    "name": "송현113",
    "addr": "동구 중봉대로 48",
    "desc": "대현빌딩 우측 10m",
    "center": "송현119안전센터",
    "area": "104",
    "lat": 37.484367,
    "lng": 126.64331
  },
  {
    "name": "송현114",
    "addr": "인천광역시 동구 송현공원로 75-22",
    "desc": "인라인스케이트장 종합안내도 표지 앞",
    "center": "송현119안전센터",
    "area": "104",
    "lat": 37.4795931,
    "lng": 126.6420861
  },
  {
    "name": "송현115",
    "addr": "인천광역시 동구 송현공원로 75-22",
    "desc": "수도국산박물관 내 송현배수지 앞",
    "center": "송현119안전센터",
    "area": "104",
    "lat": 37.4790102,
    "lng": 126.6400316
  },
  {
    "name": "송현116",
    "addr": "송현로 50",
    "desc": "신성공인중개사 앞",
    "center": "송현119안전센터",
    "area": "104",
    "lat": 37.4797131,
    "lng": 126.6366731
  },
  {
    "name": "송현117",
    "addr": "솔빛로 26",
    "desc": "송현1,2동복지센터 맞은편",
    "center": "송현119안전센터",
    "area": "104",
    "lat": 37.476674,
    "lng": 126.636143
  },
  {
    "name": "송현118",
    "addr": "수문통로 20-1",
    "desc": "깔끔이 세탁 앞",
    "center": "송현119안전센터",
    "area": "104",
    "lat": 37.4781311,
    "lng": 126.6329231
  },
  {
    "name": "송현119",
    "addr": "수문통로 26",
    "desc": "송현1동2동행정복지센터 앞",
    "center": "송현119안전센터",
    "area": "104",
    "lat": 37.4786471,
    "lng": 126.6333931
  },
  {
    "name": "송현120",
    "addr": "인천광역시 동구 송현로 50",
    "desc": "이데코 인테리어&디자인 앞",
    "center": "송현119안전센터",
    "area": "104",
    "lat": 37.4781251,
    "lng": 126.6349971
  },
  {
    "name": "송현121",
    "addr": "방축로 105",
    "desc": "산업유통단지 51동 앞",
    "center": "송현119안전센터",
    "area": "104",
    "lat": 37.483273,
    "lng": 126.657585
  },
  {
    "name": "송현122",
    "addr": "동구 중봉대로 91",
    "desc": "북항주유소(SK) 앞",
    "center": "송현119안전센터",
    "area": "104",
    "lat": 37.487599,
    "lng": 126.646131
  },
  {
    "name": "송현501",
    "addr": "인천광역시 동구 봉수대로96번길 47",
    "desc": "동수연마 앞",
    "center": "송현119안전센터",
    "area": "104",
    "lat": 37.483354,
    "lng": 126.662477
  },
  {
    "name": "송현502",
    "addr": "동구 중봉대로 99",
    "desc": "타이어뱅크 우측 횡단보도 옆(청라방향) 인도 20m",
    "center": "송현119안전센터",
    "area": "104",
    "lat": 37.48296,
    "lng": 126.650393
  },
  {
    "name": "송현503",
    "addr": "동구 염전로 64",
    "desc": "알뜰주유소 앞",
    "center": "송현119안전센터",
    "area": "104",
    "lat": 37.482892,
    "lng": 126.651341
  },
  {
    "name": "송현504",
    "addr": "염전로 16",
    "desc": "대한사료 뒤",
    "center": "송현119안전센터",
    "area": "104",
    "lat": 37.4849381,
    "lng": 126.6462641
  },
  {
    "name": "송현505",
    "addr": "인천광역시 동구 방축로 9번길 56",
    "desc": "영일볼트 맞은편",
    "center": "송현119안전센터",
    "area": "104",
    "lat": 37.489932,
    "lng": 126.650153
  },
  {
    "name": "송현506",
    "addr": "염전로40번길 38",
    "desc": "㈜스타리무진 앞 도로",
    "center": "송현119안전센터",
    "area": "104",
    "lat": 37.4830181,
    "lng": 126.6476801
  },
  {
    "name": "송현507",
    "addr": "인천광역시 동구 방축로 9번길 40",
    "desc": "MS 가스 담장",
    "center": "송현119안전센터",
    "area": "104",
    "lat": 37.489332,
    "lng": 126.649624
  },
  {
    "name": "송현508",
    "addr": "인천광역시 동구 방축로 9번길 36",
    "desc": "향도 좌측 담장",
    "center": "송현119안전센터",
    "area": "104",
    "lat": 37.489273,
    "lng": 126.649613
  },
  {
    "name": "송현509",
    "addr": "인천광역시 동구 샛골로 211",
    "desc": "커피베이 앞",
    "center": "송현119안전센터",
    "area": "104",
    "lat": 37.4812421,
    "lng": 126.6455771
  },
  {
    "name": "송현510",
    "addr": "화도진로 61",
    "desc": "에이양꼬치 앞",
    "center": "송현119안전센터",
    "area": "104",
    "lat": 37.477549,
    "lng": 126.631973
  },
  {
    "name": "송현511",
    "addr": "수문통로 29",
    "desc": "육품달 앞",
    "center": "송현119안전센터",
    "area": "104",
    "lat": 37.4789681,
    "lng": 126.6333501
  },
  {
    "name": "송현512",
    "addr": "인천광역시 동구 중앙로 26",
    "desc": "신부클럽 앞",
    "center": "송현119안전센터",
    "area": "104",
    "lat": 37.4739581,
    "lng": 126.6347421
  },
  {
    "name": "송현513",
    "addr": "인천광역시 동구 화수로 21",
    "desc": "동부아파트 상가 횡단보도",
    "center": "송현119안전센터",
    "area": "104",
    "lat": 37.4809031,
    "lng": 126.6354691
  },
  {
    "name": "송현514",
    "addr": "화도진로 59",
    "desc": "고향갈비 옆 인도",
    "center": "송현119안전센터",
    "area": "104",
    "lat": 37.4774961,
    "lng": 126.6322741
  },
  {
    "name": "송현515",
    "addr": "송현로 53-1",
    "desc": "나는펫 옆 도로",
    "center": "송현119안전센터",
    "area": "104",
    "lat": 37.4802851,
    "lng": 126.6372121
  },
  {
    "name": "송현516",
    "addr": "인천광역시 동구 송현로 19",
    "desc": "컴포즈 커피 앞 횡단보도",
    "center": "송현119안전센터",
    "area": "104",
    "lat": 37.478175,
    "lng": 126.634649
  },
  {
    "name": "송현517",
    "addr": "인천광역시 동구 안송로 109",
    "desc": "대한감리 송현교회 앞",
    "center": "송현119안전센터",
    "area": "104",
    "lat": 37.4803041,
    "lng": 126.6432241
  },
  {
    "name": "송현518",
    "addr": "화도진로 34번길 26",
    "desc": "송현교회 모퉁이",
    "center": "송현119안전센터",
    "area": "104",
    "lat": 37.475977,
    "lng": 126.635872
  },
  {
    "name": "송현519",
    "addr": "인천광역시 동구 솔빛로 5-2",
    "desc": "우리 축산물 직거래장터 앞",
    "center": "송현119안전센터",
    "area": "104",
    "lat": 37.476731,
    "lng": 126.634115
  },
  {
    "name": "송현520",
    "addr": "인천광역시 동구 화수로 38",
    "desc": "동부아파트 7동 앞",
    "center": "송현119안전센터",
    "area": "104",
    "lat": 37.4817701,
    "lng": 126.6345801
  },
  {
    "name": "송현521",
    "addr": "화도진로 34",
    "desc": "백세약국 옆골목",
    "center": "송현119안전센터",
    "area": "104",
    "lat": 37.47591,
    "lng": 126.634572
  },
  {
    "name": "송현701",
    "addr": "인천광역시 동구 화도진로 16",
    "desc": "컴포즈커피 동인천역파크푸르지오점 앞",
    "center": "송현119안전센터",
    "area": "104",
    "lat": 37.474798,
    "lng": 126.635403
  },
  {
    "name": "송현801",
    "addr": "동구 염전로 57",
    "desc": "워시플래닛 앞",
    "center": "송현119안전센터",
    "area": "104",
    "lat": 37.483944,
    "lng": 126.650865
  },
  {
    "name": "송현802",
    "addr": "인천광역시 동구 방축로 139",
    "desc": "동부 상수도사업소 정문\n좌측 보도블럭 상",
    "center": "송현119안전센터",
    "area": "104",
    "lat": 37.481986,
    "lng": 126.660573
  },
  {
    "name": "송현803",
    "addr": "동구 화도진로 52",
    "desc": "동인천역 북광장 입구",
    "center": "송현119안전센터",
    "area": "104",
    "lat": 37.477318,
    "lng": 126.632925
  },
  {
    "name": "연안001",
    "addr": "인천광역시 중구 축항대로86번길  69",
    "desc": "SK물류 정문좌측\n175M지점",
    "center": "연안119안전센터",
    "area": "104",
    "lat": 37.44798,
    "lng": 126.60536
  },
  {
    "name": "연안002",
    "addr": "인천광역시 중구 축항대로 99",
    "desc": "세광물류 입구",
    "center": "연안119안전센터",
    "area": "104",
    "lat": 37.456042,
    "lng": 126.608925
  },
  {
    "name": "연안003",
    "addr": "인천광역시 중구 축항대로 117번길 9",
    "desc": "인천세관창고 앞",
    "center": "연안119안전센터",
    "area": "104",
    "lat": 37.455649,
    "lng": 126.60997
  },
  {
    "name": "연안004",
    "addr": "인천광역시 중구 축항대로 147",
    "desc": "마이트엔메이 철길",
    "center": "연안119안전센터",
    "area": "104",
    "lat": 37.45573994,
    "lng": 126.6119961
  },
  {
    "name": "연안005",
    "addr": "인천광역시 중구 축항대로 147",
    "desc": "마이트엔메이 정문",
    "center": "연안119안전센터",
    "area": "104",
    "lat": 37.45573994,
    "lng": 126.6119961
  },
  {
    "name": "연안006",
    "addr": "중구 축항대로86번길 28",
    "desc": "인천옹진농협 앞",
    "center": "연안119안전센터",
    "area": "104",
    "lat": 37.45443598,
    "lng": 126.6054047
  },
  {
    "name": "연안007",
    "addr": "인천광역시 중구 연안부두로 3",
    "desc": "신성기계 앞",
    "center": "연안119안전센터",
    "area": "104",
    "lat": 37.456942,
    "lng": 126.605095
  },
  {
    "name": "연안008",
    "addr": "인천광역시 중구 축항대로 86번길 5",
    "desc": "요한해수 앞",
    "center": "연안119안전센터",
    "area": "104",
    "lat": 37.456024,
    "lng": 126.606881
  },
  {
    "name": "연안010",
    "addr": "인천광역시 중구 축항대로 100",
    "desc": "라이프비취 16동앞",
    "center": "연안119안전센터",
    "area": "104",
    "lat": 37.455736,
    "lng": 126.608658
  },
  {
    "name": "연안011",
    "addr": "인천광역시 중구 축항대로 106",
    "desc": "연안초교 정문 우측",
    "center": "연안119안전센터",
    "area": "104",
    "lat": 37.455468,
    "lng": 126.609262
  },
  {
    "name": "연안012",
    "addr": "인천광역시 중구 축항대로 33번길 37",
    "desc": "종합어시장 5번출구",
    "center": "연안119안전센터",
    "area": "104",
    "lat": 37.453717,
    "lng": 126.606351
  },
  {
    "name": "연안013",
    "addr": "인천광역시 중구 축항대로 33번길 37",
    "desc": "어시장 남자화장실앞",
    "center": "연안119안전센터",
    "area": "104",
    "lat": 37.454215,
    "lng": 126.607551
  },
  {
    "name": "연안014",
    "addr": "축항대로 173",
    "desc": "kj인더스트리 앞",
    "center": "연안119안전센터",
    "area": "104",
    "lat": 37.451653,
    "lng": 126.619432
  },
  {
    "name": "연안015",
    "addr": "인천광역시 중구 축항대로86번길  47",
    "desc": "라이프 아파트 8동\n후문 우측 인도",
    "center": "연안119안전센터",
    "area": "104",
    "lat": 37.450482,
    "lng": 126.604973
  },
  {
    "name": "연안016",
    "addr": "인천광역시 중구 축항대로86번길  47",
    "desc": "라이프아파트 12동 앞 도로 모서리",
    "center": "연안119안전센터",
    "area": "104",
    "lat": 37.451491,
    "lng": 126.619118
  },
  {
    "name": "연안017",
    "addr": "인천광역시 중구 축항대로 86번길 47-0",
    "desc": "라이프아파트15동 옆",
    "center": "연안119안전센터",
    "area": "104",
    "lat": 37.454945,
    "lng": 126.611451
  },
  {
    "name": "연안018",
    "addr": "축항대로 86번길  47-0",
    "desc": "라이프아파트 정문",
    "center": "연안119안전센터",
    "area": "104",
    "lat": 37.452185,
    "lng": 126.604517
  },
  {
    "name": "연안019",
    "addr": "인천광역시 중구 축항대로 86번길 47-0",
    "desc": "라이프아파트 1동 앞",
    "center": "연안119안전센터",
    "area": "104",
    "lat": 37.446867,
    "lng": 126.597682
  },
  {
    "name": "연안020",
    "addr": "중구 축항대로33번길 9",
    "desc": "보떼리아 앞",
    "center": "연안119안전센터",
    "area": "104",
    "lat": 37.454906,
    "lng": 126.603438
  },
  {
    "name": "연안021",
    "addr": "인천광역시 중구 연안부두로 7",
    "desc": "대명영인숙 정문 앞",
    "center": "연안119안전센터",
    "area": "104",
    "lat": 37.456667,
    "lng": 126.604675
  },
  {
    "name": "연안022",
    "addr": "인천광역시 중구 연안부두로 21번길 31",
    "desc": "태장실업 정문 좌측",
    "center": "연안119안전센터",
    "area": "104",
    "lat": 37.454827,
    "lng": 126.606031
  },
  {
    "name": "연안023",
    "addr": "중구 연안부두로86번길 23",
    "desc": "연안어시장 옆(만남의광장)",
    "center": "연안119안전센터",
    "area": "104",
    "lat": 37.454686,
    "lng": 126.605983
  },
  {
    "name": "연안024",
    "addr": "인천광역시 중구 축항대로 87번길 19",
    "desc": "항만주유소 앞",
    "center": "연안119안전센터",
    "area": "104",
    "lat": 37.45822,
    "lng": 126.609122
  },
  {
    "name": "연안025",
    "addr": "인천광역시 중구 축항대로 87번길 10",
    "desc": "지성물류",
    "center": "연안119안전센터",
    "area": "104",
    "lat": 37.456893,
    "lng": 126.607552
  },
  {
    "name": "연안026",
    "addr": "인천광역시 중구 축항대로 138",
    "desc": "명진상운간판 앞",
    "center": "연안119안전센터",
    "area": "104",
    "lat": 37.45457783,
    "lng": 126.6110951
  },
  {
    "name": "연안027",
    "addr": "중구 연안부두로 27",
    "desc": "뉴해모수",
    "center": "연안119안전센터",
    "area": "104",
    "lat": 37.4552573,
    "lng": 126.6036433
  },
  {
    "name": "연안028",
    "addr": "연안부두로 33번길 17",
    "desc": "맘모스회센타",
    "center": "연안119안전센터",
    "area": "104",
    "lat": 37.454571,
    "lng": 126.60413
  },
  {
    "name": "연안029",
    "addr": "인천광역시 중구 축항대로 118번길 14",
    "desc": "연안축산도매센터 앞",
    "center": "연안119안전센터",
    "area": "104",
    "lat": 37.454338,
    "lng": 126.609383
  },
  {
    "name": "연안030",
    "addr": "인천광역시 중구 서해대로  261-0",
    "desc": "기아자동차학원정문좌측",
    "center": "연안119안전센터",
    "area": "104",
    "lat": 37.451253,
    "lng": 126.625414
  },
  {
    "name": "연안031",
    "addr": "축항대로 173",
    "desc": "SK남항주유소 앞",
    "center": "연안119안전센터",
    "area": "104",
    "lat": 37.452265,
    "lng": 126.618053
  },
  {
    "name": "연안034",
    "addr": "인천광역시 중구 축항대로 159",
    "desc": "인항주유소 정면",
    "center": "연안119안전센터",
    "area": "104",
    "lat": 37.453695,
    "lng": 126.61456
  },
  {
    "name": "연안035",
    "addr": "축항대로 165번길  40-0",
    "desc": "SK남항주유소 앞",
    "center": "연안119안전센터",
    "area": "104",
    "lat": 37.453179,
    "lng": 126.615795
  },
  {
    "name": "연안036",
    "addr": "인천광역시 중구 서해대로 293번길 117",
    "desc": "전신주 옆",
    "center": "연안119안전센터",
    "area": "104",
    "lat": 37.457119,
    "lng": 126.6144168
  },
  {
    "name": "연안037",
    "addr": "인천광역시 중구 축항대로 87번길 30",
    "desc": "삼양유지 앞",
    "center": "연안119안전센터",
    "area": "104",
    "lat": 37.458298,
    "lng": 126.610788
  },
  {
    "name": "연안038",
    "addr": "인천광역시 중구 축항대로 87번길 25",
    "desc": "CJ3공장 후면 싸이로인근 전신주 옆",
    "center": "연안119안전센터",
    "area": "104",
    "lat": 37.45869473,
    "lng": 126.6094066
  },